{
  "version": 0.6,
  "generator": "Overpass API 0.7.62.8 e802775f",
  "osm3s": {
    "timestamp_osm_base": "2026-01-21T11:54:11Z",
    "copyright": "The data included in this document is from www.openstreetmap.org. The data is made available under ODbL."
  },
  "elements": [

{
  "type": "node",
  "id": 2104418,
  "lat": 47.9115203,
  "lon": 8.1108414,
  "tags": {
    "ele": "910",
    "mountain_pass": "yes",
    "name": "Wasserscheide Dreisam/Gutach"
  }
},
{
  "type": "node",
  "id": 15342752,
  "lat": 48.7521656,
  "lon": 8.0056049,
  "tags": {
    "name": "Greffern",
    "place": "village",
    "population": "1943"
  }
},
{
  "type": "node",
  "id": 15371959,
  "lat": 48.7470818,
  "lon": 8.0460292,
  "tags": {
    "name": "Schwarzach",
    "note": "population Schwarzach+Hildmannsfeld 2014: 1861",
    "place": "village",
    "population": "1672",
    "wikidata": "Q2253446",
    "wikipedia": "de:Schwarzach"
  }
},
{
  "type": "node",
  "id": 15372375,
  "lat": 48.7337992,
  "lon": 8.0591485,
  "tags": {
    "name": "Hildmannsfeld",
    "place": "village",
    "population": "260",
    "wikidata": "Q1618476",
    "wikipedia": "de:Hildmannsfeld"
  }
},
{
  "type": "node",
  "id": 15372387,
  "lat": 48.7650016,
  "lon": 8.0480008,
  "tags": {
    "name": "Stollhofen",
    "place": "village",
    "population": "1492"
  }
},
{
  "type": "node",
  "id": 15372792,
  "lat": 48.7181788,
  "lon": 8.0617653,
  "tags": {
    "name": "Moos",
    "place": "village",
    "postal_code": "77815"
  }
},
{
  "type": "node",
  "id": 15372793,
  "lat": 48.7286651,
  "lon": 8.0894510,
  "tags": {
    "name": "Oberbruch",
    "place": "village"
  }
},
{
  "type": "node",
  "id": 15372808,
  "lat": 48.7526962,
  "lon": 8.0977399,
  "tags": {
    "name": "Leiberstung",
    "place": "village",
    "wikidata": "Q1813643",
    "wikipedia": "de:Leiberstung"
  }
},
{
  "type": "node",
  "id": 15372931,
  "lat": 48.6926132,
  "lon": 8.0624313,
  "tags": {
    "name": "Zell",
    "place": "village",
    "wikidata": "Q33527122"
  }
},
{
  "type": "node",
  "id": 15372937,
  "lat": 48.6873101,
  "lon": 8.0581589,
  "tags": {
    "name": "Unzhurst",
    "place": "village"
  }
},
{
  "type": "node",
  "id": 17651838,
  "lat": 49.0344882,
  "lon": 8.2869901,
  "tags": {
    "name": "Maximiliansau",
    "place": "village",
    "wikidata": "Q668042",
    "wikipedia": "de:Maximiliansau"
  }
},
{
  "type": "node",
  "id": 17652682,
  "lat": 48.9414188,
  "lon": 8.4076347,
  "tags": {
    "ele": "133",
    "name": "Ettlingen",
    "name:ru": "Эттлинген",
    "name:sr": "Етлинген",
    "name:uk": "Еттлінґен",
    "openGeoDB:community_identification_number": "08215017",
    "openGeoDB:is_in_loc_id": "585",
    "openGeoDB:layer": "6",
    "openGeoDB:license_plate_code": "KA",
    "openGeoDB:loc_id": "16376",
    "openGeoDB:telephone_area_code": "07243",
    "place": "town",
    "population": "38819",
    "postal_code": "76275",
    "source": "Historic \"Altstadt\" drawn by using geodata from 2010 and maps from 16th to 18th century for visualization",
    "wikidata": "Q14893",
    "wikipedia": "de:Ettlingen"
  }
},
{
  "type": "node",
  "id": 17652684,
  "lat": 49.0362712,
  "lon": 8.3104443,
  "tags": {
    "name": "Maxau",
    "place": "hamlet",
    "wikidata": "Q1913735",
    "wikipedia": "de:Maxau"
  }
},
{
  "type": "node",
  "id": 18288489,
  "lat": 48.7276553,
  "lon": 8.0150864,
  "tags": {
    "name": "Ulm",
    "place": "village"
  }
},
{
  "type": "node",
  "id": 20601052,
  "lat": 48.7773366,
  "lon": 8.0585501,
  "tags": {
    "name": "Söllingen",
    "place": "village",
    "population": "1370"
  }
},
{
  "type": "node",
  "id": 20602346,
  "lat": 48.6390302,
  "lon": 8.0924882,
  "tags": {
    "ele": "147",
    "name": "Sasbach",
    "openGeoDB:combination_of_public_administration": "Verwaltungsgemeinschaft Achern",
    "openGeoDB:community_identification_number": "08317116",
    "openGeoDB:is_in_loc_id": "553",
    "openGeoDB:layer": "6",
    "openGeoDB:license_plate_code": "OG",
    "openGeoDB:loc_id": "23566",
    "openGeoDB:name": "Sasbach bei Achern, Baden",
    "openGeoDB:telephone_area_code": "07841",
    "place": "village",
    "population": "5275",
    "postal_code": "77880",
    "wikidata": "Q632868",
    "wikipedia": "de:Sasbach"
  }
},
{
  "type": "node",
  "id": 20602347,
  "lat": 48.6321099,
  "lon": 8.1050476,
  "tags": {
    "name": "Obersasbach",
    "place": "village",
    "postal_code": "77880",
    "wikidata": "Q112242451",
    "wikipedia": "de:Obersasbach"
  }
},
{
  "type": "node",
  "id": 20602693,
  "lat": 48.6687192,
  "lon": 8.1109480,
  "tags": {
    "ele": "137",
    "name": "Ottersweier",
    "name:prefix": "Gemeinde",
    "place": "village",
    "population": "6057",
    "postal_code": "77833",
    "wikidata": "Q80571",
    "wikipedia": "de:Ottersweier"
  }
},
{
  "type": "node",
  "id": 20603299,
  "lat": 48.7196031,
  "lon": 8.1138218,
  "tags": {
    "name": "Vimbuch",
    "place": "village"
  }
},
{
  "type": "node",
  "id": 20603382,
  "lat": 48.7288702,
  "lon": 8.1607982,
  "tags": {
    "name": "Steinbach",
    "place": "village",
    "wikidata": "Q2339702",
    "wikipedia": "de:Steinbach (Baden-Baden)"
  }
},
{
  "type": "node",
  "id": 20603511,
  "lat": 48.7972825,
  "lon": 8.1118983,
  "tags": {
    "name": "Hügelsheim",
    "place": "village"
  }
},
{
  "type": "node",
  "id": 20603898,
  "lat": 48.7104884,
  "lon": 7.9952091,
  "tags": {
    "name": "Scherzheim",
    "place": "village",
    "wikidata": "Q21039479",
    "wikipedia": "de:Scherzheim"
  }
},
{
  "type": "node",
  "id": 20975580,
  "lat": 48.6868867,
  "lon": 8.1872676,
  "tags": {
    "ele": "260",
    "name": "Bühlertal",
    "place": "village",
    "population": "7863",
    "postal_code": "77830",
    "wikidata": "Q550528",
    "wikipedia": "de:Bühlertal"
  }
},
{
  "type": "node",
  "id": 21618724,
  "lat": 48.3456021,
  "lon": 8.4033079,
  "tags": {
    "ele": "441",
    "name": "Alpirsbach",
    "name:ru": "Альпирсбах",
    "name:sr": "Алпирсбах",
    "place": "town",
    "population": "6310",
    "postal_code": "72275",
    "wikidata": "Q82781",
    "wikipedia": "de:Alpirsbach"
  }
},
{
  "type": "node",
  "id": 24955226,
  "lat": 48.9259588,
  "lon": 8.3699476,
  "tags": {
    "name": "Bruchhausen",
    "place": "village"
  }
},
{
  "type": "node",
  "id": 24958598,
  "lat": 48.9286598,
  "lon": 8.3896132,
  "tags": {
    "name": "Ettlingenweier",
    "place": "village"
  }
},
{
  "type": "node",
  "id": 24958600,
  "lat": 48.8985052,
  "lon": 8.4024783,
  "tags": {
    "name": "Schluttenbach",
    "place": "village",
    "wikidata": "Q1118817",
    "wikipedia": "de:Schluttenbach"
  }
},
{
  "type": "node",
  "id": 24958636,
  "lat": 48.8959450,
  "lon": 8.4175818,
  "tags": {
    "name": "Schöllbronn",
    "place": "village",
    "wikidata": "Q2258626",
    "wikipedia": "de:Schöllbronn"
  }
},
{
  "type": "node",
  "id": 24958652,
  "lat": 48.9116092,
  "lon": 8.4318781,
  "tags": {
    "name": "Spessart",
    "place": "village",
    "wikidata": "Q2309334",
    "wikipedia": "de:Spessart (Ettlingen)"
  }
},
{
  "type": "node",
  "id": 24969565,
  "lat": 48.9141239,
  "lon": 8.4599771,
  "tags": {
    "name": "Neurod",
    "place": "hamlet",
    "wikidata": "Q136466075"
  }
},
{
  "type": "node",
  "id": 24969579,
  "lat": 48.9106109,
  "lon": 8.4664085,
  "tags": {
    "name": "Etzenrot",
    "place": "village",
    "population": "1800",
    "wikidata": "Q136466055"
  }
},
{
  "type": "node",
  "id": 24969588,
  "lat": 48.8963768,
  "lon": 8.4702015,
  "tags": {
    "name": "Spielberg",
    "place": "village",
    "population": "2800",
    "wikidata": "Q2310107",
    "wikipedia": "de:Spielberg (Karlsbad)"
  }
},
{
  "type": "node",
  "id": 24969595,
  "lat": 48.8444597,
  "lon": 8.4984243,
  "tags": {
    "name": "Langenalb",
    "place": "village"
  }
},
{
  "type": "node",
  "id": 24969611,
  "lat": 48.8434858,
  "lon": 8.5304573,
  "tags": {
    "name": "Conweiler",
    "place": "village",
    "postal_code": "75334"
  }
},
{
  "type": "node",
  "id": 24969673,
  "lat": 48.8166111,
  "lon": 8.4820331,
  "tags": {
    "name": "Neusatz",
    "place": "village"
  }
},
{
  "type": "node",
  "id": 24982674,
  "lat": 48.8207117,
  "lon": 8.4459026,
  "tags": {
    "name": "Steinhäusle",
    "place": "hamlet"
  }
},
{
  "type": "node",
  "id": 24982693,
  "lat": 48.9314894,
  "lon": 8.4611815,
  "tags": {
    "name": "Busenbach",
    "place": "village",
    "population": "5400"
  }
},
{
  "type": "node",
  "id": 25831270,
  "lat": 48.6075035,
  "lon": 8.3658269,
  "tags": {
    "name": "Schönmünzach",
    "place": "village",
    "wikidata": "Q112195002",
    "wikipedia": "de:Schönmünzach"
  }
},
{
  "type": "node",
  "id": 26230712,
  "lat": 49.0883320,
  "lon": 8.4003114,
  "tags": {
    "name": "Eggenstein-Leopoldshafen",
    "place": "village",
    "population": "15243",
    "wikidata": "Q520583",
    "wikipedia": "de:Eggenstein-Leopoldshafen"
  }
},
{
  "type": "node",
  "id": 26282743,
  "lat": 48.9137186,
  "lon": 8.3816858,
  "tags": {
    "name": "Oberweier",
    "place": "village"
  }
},
{
  "type": "node",
  "id": 26618914,
  "lat": 48.8182578,
  "lon": 8.4655586,
  "tags": {
    "name": "Rotensol",
    "place": "village"
  }
},
{
  "type": "node",
  "id": 26694724,
  "lat": 48.8920496,
  "lon": 8.1067978,
  "tags": {
    "name": "Seltz",
    "name:de": "Selz",
    "place": "village",
    "population": "3135",
    "population:date": "2021",
    "source:population": "INSEE 2024"
  }
},
{
  "type": "node",
  "id": 26695882,
  "lat": 48.9751103,
  "lon": 8.1767166,
  "tags": {
    "name": "Lauterbourg",
    "name:de": "Lauterburg",
    "name:ru": "Лотербур",
    "place": "village",
    "population": "2339",
    "population:date": "2021",
    "source:population": "INSEE 2024"
  }
},
{
  "type": "node",
  "id": 27080918,
  "lat": 49.0035346,
  "lon": 8.5287483,
  "tags": {
    "name": "Berghausen",
    "name:ru": "Бергхаузен",
    "place": "village",
    "population": "7326",
    "postal_code": "76327"
  }
},
{
  "type": "node",
  "id": 27306995,
  "lat": 48.9705048,
  "lon": 8.2664405,
  "tags": {
    "name": "Neuburgweier",
    "place": "village",
    "wikidata": "Q1979342"
  }
},
{
  "type": "node",
  "id": 27356634,
  "lat": 48.9328266,
  "lon": 8.2704865,
  "tags": {
    "ele": "119",
    "name": "Durmersheim",
    "name:sr": "Дурмерсхајм",
    "name:uk": "Дурмерсгайм",
    "openGeoDB:combination_of_public_administration": "Verwaltungsverband Durmersheim",
    "openGeoDB:community_identification_number": "08216009",
    "openGeoDB:is_in_loc_id": "364",
    "openGeoDB:license_plate_code": "RA",
    "openGeoDB:loc_id": "15893",
    "openGeoDB:telephone_area_code": "07245",
    "openGeoDB:type": "Gemeinde",
    "place": "town",
    "population": "11954",
    "postal_code": "76448",
    "wikidata": "Q81858",
    "wikipedia": "de:Durmersheim"
  }
},
{
  "type": "node",
  "id": 27356641,
  "lat": 48.8894679,
  "lon": 8.2383062,
  "tags": {
    "name": "Ötigheim",
    "name:de": "Ötigheim",
    "name:uk": "Етіггайм",
    "openGeoDB:auto_update": "population",
    "openGeoDB:combination_of_public_administration": "Verwaltungsgemeinschaft Rastatt",
    "openGeoDB:community_identification_number": "08216039",
    "openGeoDB:is_in_loc_id": "364",
    "openGeoDB:layer": "6",
    "openGeoDB:license_plate_code": "RA",
    "openGeoDB:loc_id": "22098",
    "openGeoDB:name": "Ötigheim",
    "openGeoDB:population": "4334",
    "openGeoDB:postal_codes": "76470",
    "openGeoDB:sort_name": "OETIGHEIM",
    "openGeoDB:telephone_area_code": "07222",
    "openGeoDB:type": "Gemeinde",
    "openGeoDB:version": "0.2.6.11 / 2007-12-04 / http://fa-technik.adfc.de/code/opengeodb/dump/",
    "opengeodb:lat": "48.8896411",
    "opengeodb:lon": "8.2349789",
    "place": "village",
    "population": "4334"
  }
},
{
  "type": "node",
  "id": 27430289,
  "lat": 49.0532906,
  "lon": 8.5245089,
  "tags": {
    "name": "Weingarten",
    "official_name": "Weingarten (Baden)",
    "openGeoDB:license_plate_code": "KA",
    "openGeoDB:telephone_area_code": "07244",
    "place": "village",
    "population": "10392",
    "website": "https://www.weingarten-baden.de/",
    "wikidata": "Q550666",
    "wikipedia": "de:Weingarten (Baden)"
  }
},
{
  "type": "node",
  "id": 27547436,
  "lat": 48.8256695,
  "lon": 8.2320690,
  "tags": {
    "name": "Förch",
    "place": "village"
  }
},
{
  "type": "node",
  "id": 28342487,
  "lat": 48.9967016,
  "lon": 8.4020680,
  "tags": {
    "ele": "153.6",
    "name": "Lauterberg",
    "natural": "peak",
    "wikidata": "Q20754380",
    "wikipedia": "de:Lauterberg (Karlsruhe)"
  }
},
{
  "type": "node",
  "id": 28390453,
  "lat": 48.5069519,
  "lon": 8.3720124,
  "tags": {
    "ele": "584",
    "name": "Baiersbronn",
    "name:sr": "Бајерсброн",
    "openGeoDB:community_identification_number": "08237004",
    "openGeoDB:is_in_loc_id": "581",
    "openGeoDB:layer": "6",
    "openGeoDB:license_plate_code": "FDS",
    "openGeoDB:loc_id": "14045",
    "openGeoDB:telephone_area_code": "07442",
    "place": "town",
    "population": "14453",
    "postal_code": "72270",
    "wikidata": "Q81241",
    "wikipedia": "de:Baiersbronn"
  }
},
{
  "type": "node",
  "id": 28390456,
  "lat": 48.4637727,
  "lon": 8.4111727,
  "tags": {
    "ele": "732",
    "name": "Freudenstadt",
    "name:ru": "Фройденштадт",
    "name:sr": "Фројденштат",
    "name:uk": "Фройденштадт",
    "place": "town",
    "population": "23888",
    "postal_code": "72250",
    "wikidata": "Q82838",
    "wikipedia": "de:Freudenstadt"
  }
},
{
  "type": "node",
  "id": 28902711,
  "lat": 48.8209175,
  "lon": 8.1421337,
  "tags": {
    "name": "Iffezheim",
    "openGeoDB:auto_update": "population",
    "openGeoDB:combination_of_public_administration": "Verwaltungsgemeinschaft Rastatt",
    "openGeoDB:community_identification_number": "08216023",
    "openGeoDB:is_in": "Rastatt,Karlsruhe,Baden-Württemberg,Bundesrepublik Deutschland,Europe",
    "openGeoDB:is_in_loc_id": "364",
    "openGeoDB:layer": "6",
    "openGeoDB:license_plate_code": "RA",
    "openGeoDB:loc_id": "18779",
    "openGeoDB:name": "Iffezheim",
    "openGeoDB:population": "4909",
    "openGeoDB:postal_codes": "76473",
    "openGeoDB:sort_name": "IFFEZHEIM",
    "openGeoDB:telephone_area_code": "07229",
    "openGeoDB:type": "Gemeinde",
    "openGeoDB:version": "0.2.6.11 / 2007-12-04 / http://fa-technik.adfc.de/code/opengeodb/dump/",
    "opengeodb:lat": "48.8224657",
    "opengeodb:lon": "8.1413115",
    "place": "village",
    "population": "4909",
    "postal_code": "76473"
  }
},
{
  "type": "node",
  "id": 28932251,
  "lat": 48.8455231,
  "lon": 8.1357373,
  "tags": {
    "name": "Wintersdorf",
    "place": "village"
  }
},
{
  "type": "node",
  "id": 28932252,
  "lat": 48.8607565,
  "lon": 8.1548745,
  "tags": {
    "name": "Ottersdorf",
    "place": "village"
  }
},
{
  "type": "node",
  "id": 28932253,
  "lat": 48.8846536,
  "lon": 8.1563625,
  "tags": {
    "name": "Plittersdorf",
    "place": "village"
  }
},
{
  "type": "node",
  "id": 28932254,
  "lat": 48.9003169,
  "lon": 8.1988679,
  "tags": {
    "name": "Steinmauern",
    "place": "village",
    "population": "3111",
    "population:date": "2017-12-31",
    "postal_code": "76479",
    "wikidata": "Q81679",
    "wikipedia": "de:Steinmauern"
  }
},
{
  "type": "node",
  "id": 29044535,
  "lat": 48.4946385,
  "lon": 8.0182635,
  "tags": {
    "name": "Durbach",
    "place": "village",
    "population": "3884",
    "website": "https://www.durbach.de/",
    "wikidata": "Q550750",
    "wikipedia": "de:Durbach"
  }
},
{
  "type": "node",
  "id": 29767619,
  "lat": 48.8564408,
  "lon": 8.2478596,
  "tags": {
    "name": "Rauental",
    "place": "village"
  }
},
{
  "type": "node",
  "id": 29910191,
  "lat": 48.8700689,
  "lon": 8.3962452,
  "tags": {
    "name": "Völkersbach",
    "place": "village",
    "population": "1893",
    "postal_code": "76316"
  }
},
{
  "type": "node",
  "id": 29910549,
  "lat": 48.8833306,
  "lon": 8.3979897,
  "tags": {
    "name": "Rimmelsbacher Hof",
    "place": "hamlet"
  }
},
{
  "type": "node",
  "id": 29922566,
  "lat": 48.8272323,
  "lon": 8.2545743,
  "tags": {
    "name": "Kuppenheim",
    "name:prefix": "Stadt",
    "place": "town",
    "population": "8224",
    "population:date": "2024-12-31",
    "source:population": "Statistisches Landesamt Baden-Württemberg"
  }
},
{
  "type": "node",
  "id": 29923123,
  "lat": 48.8183266,
  "lon": 8.3514195,
  "tags": {
    "name": "Michelbach",
    "place": "village"
  }
},
{
  "type": "node",
  "id": 29923155,
  "lat": 48.8070359,
  "lon": 8.3612857,
  "tags": {
    "name": "Sulzbach",
    "place": "village",
    "wikidata": "Q15737015"
  }
},
{
  "type": "node",
  "id": 29923759,
  "lat": 48.8088064,
  "lon": 8.1951676,
  "tags": {
    "name": "Sandweier",
    "place": "village",
    "wikidata": "Q2221399",
    "wikipedia": "de:Sandweier"
  }
},
{
  "type": "node",
  "id": 31203979,
  "lat": 48.4364050,
  "lon": 8.3615172,
  "tags": {
    "name": "Zwieselberg",
    "place": "hamlet"
  }
},
{
  "type": "node",
  "id": 32131183,
  "lat": 48.7403672,
  "lon": 8.2739541,
  "tags": {
    "name": "Oberbeuern",
    "place": "village"
  }
},
{
  "type": "node",
  "id": 32132218,
  "lat": 48.7299655,
  "lon": 8.2531690,
  "tags": {
    "name": "Geroldsau",
    "place": "village"
  }
},
{
  "type": "node",
  "id": 32444078,
  "lat": 48.9516939,
  "lon": 8.2380728,
  "tags": {
    "alt_name": "Au;Au a.Rh.",
    "name": "Au am Rhein",
    "place": "village"
  }
},
{
  "type": "node",
  "id": 32573623,
  "lat": 48.7360832,
  "lon": 8.1787874,
  "tags": {
    "name": "Varnhalt",
    "place": "village",
    "wikidata": "Q2510898",
    "wikipedia": "de:Varnhalt"
  }
},
{
  "type": "node",
  "id": 32919102,
  "lat": 48.8701198,
  "lon": 8.2798439,
  "tags": {
    "name": "Muggensturm",
    "openGeoDB:auto_update": "population,is_in",
    "openGeoDB:combination_of_public_administration": "Verwaltungsgemeinschaft Rastatt",
    "openGeoDB:community_identification_number": "08216033",
    "openGeoDB:is_in": "Rastatt,Karlsruhe,Baden-Württemberg,Bundesrepublik Deutschland,Europe",
    "openGeoDB:is_in_loc_id": "364",
    "openGeoDB:layer": "6",
    "openGeoDB:license_plate_code": "RA",
    "openGeoDB:loc_id": "21212",
    "openGeoDB:name": "Muggensturm",
    "openGeoDB:population": "6227",
    "openGeoDB:postal_codes": "76461",
    "openGeoDB:sort_name": "MUGGENSTURM",
    "openGeoDB:telephone_area_code": "07222",
    "openGeoDB:type": "Gemeinde",
    "openGeoDB:version": "0.2.6.11 / 2007-12-04 / http://fa-technik.adfc.de/code/opengeodb/dump/",
    "opengeodb:lat": "48.87372",
    "opengeodb:lon": "8.2794746",
    "place": "village",
    "population": "6227",
    "wikidata": "Q80708",
    "wikipedia": "de:Muggensturm"
  }
},
{
  "type": "node",
  "id": 33990697,
  "lat": 48.9840852,
  "lon": 8.2018479,
  "tags": {
    "de:amtlicher_gemeindeschluessel": "07334002",
    "name": "Berg (Pfalz)",
    "place": "village",
    "population": "2169",
    "short_name": "Berg",
    "website": "https://berg-pfalz.de/",
    "wikidata": "Q681063",
    "wikipedia": "de:Berg (Pfalz)"
  }
},
{
  "type": "node",
  "id": 34006666,
  "lat": 48.9378506,
  "lon": 8.2521617,
  "tags": {
    "name": "Würmersheim",
    "place": "village",
    "population": "2548",
    "postal_code": "76448",
    "wikidata": "Q1839962",
    "wikipedia": "de:Würmersheim"
  }
},
{
  "type": "node",
  "id": 34094611,
  "lat": 48.7384373,
  "lon": 8.2683622,
  "tags": {
    "name": "Seelach",
    "place": "hamlet"
  }
},
{
  "type": "node",
  "id": 34589817,
  "lat": 48.7888389,
  "lon": 8.2243535,
  "tags": {
    "name": "Balg",
    "place": "village"
  }
},
{
  "type": "node",
  "id": 34806317,
  "lat": 48.7755065,
  "lon": 8.2157186,
  "tags": {
    "name": "Ooswinkel",
    "place": "hamlet"
  }
},
{
  "type": "node",
  "id": 34806318,
  "lat": 48.7803771,
  "lon": 8.1959254,
  "tags": {
    "name": "Cité",
    "place": "hamlet"
  }
},
{
  "type": "node",
  "id": 34845461,
  "lat": 48.7705336,
  "lon": 8.2218596,
  "tags": {
    "name": "Oosscheuern",
    "place": "hamlet"
  }
},
{
  "type": "node",
  "id": 38115686,
  "lat": 48.9792949,
  "lon": 8.1832055,
  "tags": {
    "name": "Neulauterburg",
    "place": "hamlet"
  }
},
{
  "type": "node",
  "id": 39527445,
  "lat": 48.7526525,
  "lon": 8.2022485,
  "tags": {
    "ele": "525",
    "name": "Fremersberg",
    "name:ru": "Гора Fremersberg",
    "natural": "peak",
    "wikidata": "Q1455188"
  }
},
{
  "type": "node",
  "id": 41488010,
  "lat": 48.3105623,
  "lon": 8.3717915,
  "tags": {
    "name": "Schenkenzell",
    "name:ru": "Шенкенцелль",
    "openGeoDB:auto_update": "population",
    "openGeoDB:combination_of_public_administration": "Verwaltungsgemeinschaft Schiltach",
    "openGeoDB:community_identification_number": "08325050",
    "openGeoDB:is_in": "Rottweil,Freiburg,Baden-Württemberg,Bundesrepublik Deutschland,Europe",
    "openGeoDB:is_in_loc_id": "558",
    "openGeoDB:layer": "6",
    "openGeoDB:license_plate_code": "RW",
    "openGeoDB:loc_id": "23666",
    "openGeoDB:name": "Schenkenzell",
    "openGeoDB:population": "1825",
    "openGeoDB:postal_codes": "77773",
    "openGeoDB:sort_name": "SCHENKENZELL",
    "openGeoDB:telephone_area_code": "07836",
    "openGeoDB:type": "Gemeinde",
    "openGeoDB:version": "0.2.6.11 / 2007-12-04 / http://fa-technik.adfc.de/code/opengeodb/dump/",
    "opengeodb:lat": "48.3104063",
    "opengeodb:lon": "8.3721489",
    "place": "village",
    "population": "1825",
    "wikidata": "Q81350",
    "wikimedia_commons": "File:Schenkenzell Ortslage.jpg",
    "wikipedia": "de:Schenkenzell"
  }
},
{
  "type": "node",
  "id": 42264887,
  "lat": 48.8554210,
  "lon": 8.5303503,
  "tags": {
    "name": "Feldrennach",
    "place": "village",
    "postal_code": "75334"
  }
},
{
  "type": "node",
  "id": 42264906,
  "lat": 48.9140809,
  "lon": 8.5317680,
  "tags": {
    "name": "Auerbach",
    "place": "village",
    "population": "1800",
    "wikidata": "Q759220",
    "wikipedia": "de:Auerbach (Karlsbad)"
  }
},
{
  "type": "node",
  "id": 48959516,
  "lat": 48.2121531,
  "lon": 8.5069055,
  "tags": {
    "name": "Dunningen",
    "name:prefix": "Gemeinde",
    "place": "village",
    "population": "6029",
    "postal_code": "78655"
  }
},
{
  "type": "node",
  "id": 52787461,
  "lat": 48.6214009,
  "lon": 8.5170087,
  "tags": {
    "name": "Simmersfeld",
    "name:prefix": "Gemeinde",
    "place": "village",
    "population": "2205",
    "postal_code": "72226",
    "wikidata": "Q552099",
    "wikipedia": "de:Simmersfeld"
  }
},
{
  "type": "node",
  "id": 59316624,
  "lat": 48.9988973,
  "lon": 8.0710061,
  "tags": {
    "name": "Bienwaldmühle",
    "place": "hamlet"
  }
},
{
  "type": "node",
  "id": 60012048,
  "lat": 48.8386718,
  "lon": 8.2843093,
  "tags": {
    "name": "Bischweier",
    "openGeoDB:auto_update": "population",
    "openGeoDB:combination_of_public_administration": "Verwaltungsverband Nachbarschaftsverband Bischweier-Kuppenheim",
    "openGeoDB:community_identification_number": "08216006",
    "openGeoDB:is_in_loc_id": "364",
    "openGeoDB:layer": "6",
    "openGeoDB:license_plate_code": "RA",
    "openGeoDB:loc_id": "14554",
    "openGeoDB:name": "Bischweier",
    "openGeoDB:population": "3146",
    "openGeoDB:postal_codes": "76476",
    "openGeoDB:sort_name": "BISCHWEIER",
    "openGeoDB:telephone_area_code": "07222",
    "openGeoDB:type": "Gemeinde",
    "openGeoDB:version": "0.2.6.11 / 2007-12-04 / http://fa-technik.adfc.de/code/opengeodb/dump/",
    "opengeodb:lat": "48.8384811",
    "opengeodb:lon": "8.2844528",
    "place": "village",
    "population": "3146"
  }
},
{
  "type": "node",
  "id": 60268100,
  "lat": 48.9933743,
  "lon": 8.0920497,
  "tags": {
    "name": "Forsthaus Salmbacher Passage",
    "place": "hamlet",
    "postal_code": "76779"
  }
},
{
  "type": "node",
  "id": 61318044,
  "lat": 48.8367234,
  "lon": 8.3878583,
  "tags": {
    "name": "Moosbronn",
    "place": "hamlet",
    "wikidata": "Q1946953"
  }
},
{
  "type": "node",
  "id": 61319924,
  "lat": 48.8460952,
  "lon": 8.3733608,
  "tags": {
    "name": "Freiolsheim",
    "place": "village"
  }
},
{
  "type": "node",
  "id": 65290489,
  "lat": 48.3625034,
  "lon": 8.4523183,
  "tags": {
    "name": "Trollenberg",
    "place": "hamlet"
  }
},
{
  "type": "node",
  "id": 73056416,
  "lat": 48.0454535,
  "lon": 8.1381577,
  "tags": {
    "is_in": "Schwarzwald-Baar-Kreis,Freiburg,Baden-Württemberg,Bundesrepublik Deutschland,Europe",
    "name": "Gütenbach",
    "openGeoDB:auto_update": "population,is_in",
    "openGeoDB:combination_of_public_administration": "Verwaltungsgemeinschaft Furtwangen",
    "openGeoDB:community_identification_number": "08326020",
    "openGeoDB:is_in": "Schwarzwald-Baar-Kreis,Freiburg,Baden-Württemberg,Bundesrepublik Deutschland,Europe",
    "openGeoDB:is_in_loc_id": "561",
    "openGeoDB:layer": "6",
    "openGeoDB:license_plate_code": "VS",
    "openGeoDB:loc_id": "17674",
    "openGeoDB:name": "Gütenbach",
    "openGeoDB:population": "1319",
    "openGeoDB:postal_codes": "78148",
    "openGeoDB:sort_name": "GUETENBACH",
    "openGeoDB:telephone_area_code": "07723",
    "openGeoDB:type": "Gemeinde",
    "openGeoDB:version": "0.2.6.11 / 2007-12-04 / http://fa-technik.adfc.de/code/opengeodb/dump/",
    "opengeodb:lat": "48.0473334",
    "opengeodb:lon": "8.136352",
    "place": "village",
    "population": "1319",
    "wikidata": "Q81429",
    "wikipedia": "de:Gütenbach"
  }
},
{
  "type": "node",
  "id": 73056419,
  "lat": 48.1224647,
  "lon": 8.0083804,
  "tags": {
    "name": "Bleibach",
    "place": "village",
    "wikidata": "Q47520103"
  }
},
{
  "type": "node",
  "id": 73247592,
  "lat": 48.1001644,
  "lon": 8.0554669,
  "tags": {
    "name": "Simonswald",
    "place": "village",
    "population": "3101",
    "wikidata": "Q557710",
    "wikipedia": "de:Simonswald"
  }
},
{
  "type": "node",
  "id": 74042819,
  "lat": 49.0581256,
  "lon": 8.0824098,
  "tags": {
    "name": "Schaidt",
    "place": "village",
    "population": "1993",
    "wikidata": "Q2230254",
    "wikipedia": "de:Schaidt"
  }
},
{
  "type": "node",
  "id": 74062035,
  "lat": 49.0630866,
  "lon": 8.0643376,
  "tags": {
    "name": "Neumühle",
    "place": "hamlet"
  }
},
{
  "type": "node",
  "id": 75090368,
  "lat": 47.9189737,
  "lon": 8.0167776,
  "tags": {
    "ele": "1198",
    "name": "Hinterwaldkopf",
    "natural": "peak",
    "wikidata": "Q1619849",
    "wikipedia": "de:Hinterwaldkopf"
  }
},
{
  "type": "node",
  "id": 75481054,
  "lat": 48.2998181,
  "lon": 8.4893820,
  "tags": {
    "name": "Fluorn",
    "place": "village",
    "wikidata": "Q48546949",
    "wikipedia": "de:Fluorn"
  }
},
{
  "type": "node",
  "id": 78815580,
  "lat": 48.9015904,
  "lon": 8.3092666,
  "tags": {
    "name": "Neumalsch",
    "place": "hamlet"
  }
},
{
  "type": "node",
  "id": 81605743,
  "lat": 48.7674168,
  "lon": 8.0960784,
  "tags": {
    "name": "Schiftung",
    "place": "village"
  }
},
{
  "type": "node",
  "id": 81767247,
  "lat": 48.9126152,
  "lon": 8.2539859,
  "tags": {
    "alt_name": "Bietigheim (Baden)",
    "name": "Bietigheim",
    "name:prefix": "Gemeinde",
    "name:uk": "Бітігайм (Баден)",
    "place": "village",
    "population": "6076",
    "wikidata": "Q550649",
    "wikipedia": "de:Bietigheim"
  }
},
{
  "type": "node",
  "id": 82602102,
  "lat": 47.9166003,
  "lon": 8.0237159,
  "tags": {
    "mountain_pass": "yes",
    "name": "Hinterwaldkopfsattel",
    "natural": "saddle"
  }
},
{
  "type": "node",
  "id": 83643531,
  "lat": 49.0663877,
  "lon": 8.1150442,
  "tags": {
    "name": "Freckenfeld",
    "place": "village",
    "population": "1576"
  }
},
{
  "type": "node",
  "id": 83644462,
  "lat": 49.0711967,
  "lon": 8.1463809,
  "tags": {
    "name": "Minfeld",
    "place": "village",
    "population": "1582"
  }
},
{
  "type": "node",
  "id": 96773038,
  "lat": 48.4751652,
  "lon": 8.1646682,
  "tags": {
    "name": "Oppenau",
    "name:ru": "Оппенау",
    "openGeoDB:auto_update": "population",
    "openGeoDB:combination_of_public_administration": "Verwaltungsgemeinschaft Oberes Renchtal",
    "openGeoDB:community_identification_number": "08317098",
    "openGeoDB:is_in": "Ortenaukreis,Freiburg,Baden-Württemberg,Bundesrepublik Deutschland,Europe",
    "openGeoDB:is_in_loc_id": "553",
    "openGeoDB:license_plate_code": "OG",
    "openGeoDB:loc_id": "22166",
    "openGeoDB:name": "Oppenau",
    "openGeoDB:population": "5050",
    "openGeoDB:postal_codes": "77728",
    "openGeoDB:sort_name": "OPPENAU",
    "openGeoDB:telephone_area_code": "07804",
    "openGeoDB:type": "Stadt",
    "openGeoDB:version": "0.2.6.11%20/%202007-12-04%20/%20http://fa-technik.adfc.de/code/opengeodb/dump/",
    "opengeodb:lat": "48.4751222",
    "opengeodb:lon": "8.1649323",
    "place": "town",
    "population": "5050",
    "wikidata": "Q515470"
  }
},
{
  "type": "node",
  "id": 97966643,
  "lat": 48.8116812,
  "lon": 8.0082773,
  "tags": {
    "name": "Auenheim",
    "place": "village"
  }
},
{
  "type": "node",
  "id": 97966665,
  "lat": 48.8632757,
  "lon": 8.0844618,
  "tags": {
    "name": "Beinheim",
    "place": "village",
    "population": "1914",
    "population:date": "2021",
    "source:population": "INSEE 2024"
  }
},
{
  "type": "node",
  "id": 97966761,
  "lat": 48.9161045,
  "lon": 8.0063486,
  "tags": {
    "name": "Buhl",
    "name:de": "Bühl",
    "place": "village",
    "population": "505",
    "population:date": "2021",
    "source:population": "INSEE 2024"
  }
},
{
  "type": "node",
  "id": 97967993,
  "lat": 48.9322198,
  "lon": 8.0325295,
  "tags": {
    "name": "Crœttwiller",
    "name:de": "Kröttweiler",
    "place": "village",
    "population": "178",
    "population:date": "2021",
    "source:population": "INSEE 2024"
  }
},
{
  "type": "node",
  "id": 97968101,
  "lat": 48.9273858,
  "lon": 8.0662780,
  "tags": {
    "name": "Eberbach-Seltz",
    "name:de": "Eberbach",
    "place": "village",
    "population": "429",
    "population:date": "2021",
    "source:population": "INSEE 2024"
  }
},
{
  "type": "node",
  "id": 97968160,
  "lat": 48.8611178,
  "lon": 8.0394414,
  "tags": {
    "name": "Forstfeld",
    "place": "village",
    "population": "793",
    "population:date": "2021",
    "source:population": "INSEE 2024"
  }
},
{
  "type": "node",
  "id": 97968390,
  "lat": 48.8521717,
  "lon": 8.0280196,
  "tags": {
    "name": "Kauffenheim",
    "place": "village",
    "population": "215",
    "population:date": "2021",
    "source:population": "INSEE 2024"
  }
},
{
  "type": "node",
  "id": 97968402,
  "lat": 48.8755617,
  "lon": 8.0675730,
  "tags": {
    "name": "Kesseldorf",
    "place": "village",
    "population": "445",
    "population:date": "2021",
    "source:population": "INSEE 2024"
  }
},
{
  "type": "node",
  "id": 97968496,
  "lat": 48.8420382,
  "lon": 8.0213659,
  "tags": {
    "name": "Leutenheim",
    "place": "village",
    "population": "830",
    "population:date": "2021",
    "source:population": "INSEE 2024"
  }
},
{
  "type": "node",
  "id": 97968582,
  "lat": 48.8237291,
  "lon": 8.0856866,
  "tags": {
    "name": "Neuhaeusel",
    "name:de": "Neuhäusel",
    "place": "village",
    "population": "390",
    "population:date": "2021",
    "source:population": "INSEE 2024"
  }
},
{
  "type": "node",
  "id": 97968594,
  "lat": 48.9549618,
  "lon": 8.1262948,
  "tags": {
    "name": "Neewiller-près-Lauterbourg",
    "name:de": "Nehweiler",
    "place": "village",
    "population": "662",
    "population:date": "2021",
    "source:population": "INSEE 2024"
  }
},
{
  "type": "node",
  "id": 97968601,
  "lat": 48.9196671,
  "lon": 8.1484455,
  "tags": {
    "name": "Munchhausen",
    "name:de": "Münchhausen",
    "place": "village",
    "population": "812",
    "population:date": "2021",
    "source:population": "INSEE 2024"
  }
},
{
  "type": "node",
  "id": 97968621,
  "lat": 48.9312550,
  "lon": 8.1531464,
  "tags": {
    "name": "Mothern",
    "name:vmf": "Modere",
    "place": "village",
    "population": "1915",
    "population:date": "2021",
    "source:population": "INSEE 2024"
  }
},
{
  "type": "node",
  "id": 97968715,
  "lat": 48.9064110,
  "lon": 8.0485199,
  "tags": {
    "name": "Niederrœdern",
    "name:de": "Niederrödern",
    "place": "village",
    "population": "905",
    "population:date": "2021",
    "source:population": "INSEE 2024"
  }
},
{
  "type": "node",
  "id": 97968718,
  "lat": 48.9733424,
  "lon": 8.1037078,
  "tags": {
    "name": "Niederlauterbach",
    "place": "village",
    "population": "945",
    "population:date": "2021",
    "source:population": "INSEE 2024"
  }
},
{
  "type": "node",
  "id": 97968827,
  "lat": 48.8278605,
  "lon": 8.0363491,
  "tags": {
    "name": "Rœschwoog",
    "name:de": "Röschwoog",
    "place": "village",
    "population": "2272",
    "population:date": "2021",
    "source:population": "INSEE 2024"
  }
},
{
  "type": "node",
  "id": 97968888,
  "lat": 48.9097061,
  "lon": 8.0988935,
  "tags": {
    "name": "Schaffhouse-près-Seltz",
    "name:de": "Schaffhausen",
    "name:vmf": "Schofhof",
    "place": "village",
    "population": "552",
    "population:date": "2021",
    "source:population": "INSEE 2024"
  }
},
{
  "type": "node",
  "id": 97968902,
  "lat": 48.9784050,
  "lon": 8.0761696,
  "tags": {
    "name": "Salmbach",
    "place": "village",
    "population": "587",
    "population:date": "2021",
    "source:population": "INSEE 2024"
  }
},
{
  "type": "node",
  "id": 97968920,
  "lat": 48.8440817,
  "lon": 8.0545977,
  "tags": {
    "name": "Roppenheim",
    "place": "village",
    "population": "1030",
    "population:date": "2021",
    "source:population": "INSEE 2024"
  }
},
{
  "type": "node",
  "id": 97968994,
  "lat": 48.9573176,
  "lon": 8.0427704,
  "tags": {
    "name": "Siegen",
    "place": "village",
    "population": "508",
    "population:date": "2021",
    "source:population": "INSEE 2024"
  }
},
{
  "type": "node",
  "id": 97969020,
  "lat": 48.9894363,
  "lon": 8.0441146,
  "tags": {
    "name": "Schleithal",
    "name:pfl": "Schlatel",
    "name:uk": "Шлеталь",
    "place": "village",
    "population": "1393",
    "population:date": "2021",
    "source:population": "INSEE 2024"
  }
},
{
  "type": "node",
  "id": 97969027,
  "lat": 48.9776565,
  "lon": 8.1376453,
  "tags": {
    "name": "Scheibenhard",
    "name:de": "Scheibenhardt",
    "name:pfl": "Schaiwert",
    "name:uk": "Шебенар",
    "place": "village",
    "population": "864",
    "population:date": "2021",
    "source:population": "INSEE 2024"
  }
},
{
  "type": "node",
  "id": 97969122,
  "lat": 48.9399791,
  "lon": 8.0235967,
  "tags": {
    "name": "Trimbach",
    "place": "village",
    "population": "582",
    "population:date": "2021",
    "source:population": "INSEE 2024"
  }
},
{
  "type": "node",
  "id": 97969208,
  "lat": 48.9354309,
  "lon": 8.1028449,
  "tags": {
    "name": "Wintzenbach",
    "name:de": "Winzenbach",
    "place": "village",
    "population": "528",
    "population:date": "2021",
    "source:population": "INSEE 2024"
  }
},
{
  "type": "node",
  "id": 101531627,
  "lat": 48.2862366,
  "lon": 8.4917370,
  "tags": {
    "ele": "649",
    "name": "Winzeln",
    "place": "village",
    "population": "3087",
    "postal_code": "78737",
    "wikidata": "Q81143",
    "wikipedia": "de:Fluorn-Winzeln"
  }
},
{
  "type": "node",
  "id": 102970041,
  "lat": 48.5254278,
  "lon": 8.3973121,
  "tags": {
    "name": "Klosterreichenbach",
    "place": "village"
  }
},
{
  "type": "node",
  "id": 102971684,
  "lat": 48.5396652,
  "lon": 8.4041086,
  "tags": {
    "name": "Heselbach",
    "place": "hamlet",
    "postal_code": "72270",
    "wikidata": "Q112195005",
    "wikipedia": "de:Heselbach (Baiersbronn)"
  }
},
{
  "type": "node",
  "id": 102972282,
  "lat": 48.5575644,
  "lon": 8.3960852,
  "tags": {
    "name": "Röt",
    "place": "village",
    "postal_code": "72270"
  }
},
{
  "type": "node",
  "id": 102974178,
  "lat": 48.5691391,
  "lon": 8.4019961,
  "tags": {
    "name": "Schönegründ",
    "place": "village",
    "postal_code": "72270"
  }
},
{
  "type": "node",
  "id": 102975907,
  "lat": 48.5871856,
  "lon": 8.3870525,
  "tags": {
    "name": "Huzenbach",
    "place": "village"
  }
},
{
  "type": "node",
  "id": 105884856,
  "lat": 48.5499443,
  "lon": 8.4734724,
  "tags": {
    "name": "Erzgrube",
    "place": "village",
    "postal_code": "72297",
    "wikidata": "Q112211879",
    "wikipedia": "de:Erzgrube (Seewald)"
  }
},
{
  "type": "node",
  "id": 113319091,
  "lat": 48.7063108,
  "lon": 8.4319912,
  "tags": {
    "name": "Kaltenbronn",
    "place": "hamlet",
    "wikidata": "Q1722662",
    "wikipedia": "de:Kaltenbronn (Gernsbach)"
  }
},
{
  "type": "node",
  "id": 114168441,
  "lat": 48.6681061,
  "lon": 8.4713414,
  "tags": {
    "name": "Enzklösterle",
    "openGeoDB:auto_update": "population,is_in",
    "openGeoDB:combination_of_public_administration": "Verwaltungsgemeinschaft Bad Wildbad",
    "openGeoDB:community_identification_number": "08235025",
    "openGeoDB:is_in": "Calw,Karlsruhe,Baden-Württemberg,Bundesrepublik Deutschland,Europe",
    "openGeoDB:is_in_loc_id": "574",
    "openGeoDB:layer": "6",
    "openGeoDB:license_plate_code": "CW",
    "openGeoDB:loc_id": "16232",
    "openGeoDB:name": "Enzklösterle",
    "openGeoDB:population": "1284",
    "openGeoDB:postal_codes": "75337",
    "openGeoDB:sort_name": "ENZKLOESTERLE",
    "openGeoDB:telephone_area_code": "07085",
    "openGeoDB:type": "Gemeinde",
    "openGeoDB:version": "0.2.6.11 / 2007-12-04 / http://fa-technik.adfc.de/code/opengeodb/dump/",
    "opengeodb:lat": "48.6667883",
    "opengeodb:lon": "8.4733367",
    "place": "village",
    "population": "1348",
    "website": "https://www.enzkloesterle.de/",
    "wikidata": "Q246783",
    "wikipedia": "de:Enzklösterle"
  }
},
{
  "type": "node",
  "id": 117587103,
  "lat": 48.7142435,
  "lon": 8.4248967,
  "tags": {
    "ele": "933",
    "mountain_pass": "yes",
    "name": "Schwarzmiss",
    "natural": "saddle"
  }
},
{
  "type": "node",
  "id": 118159444,
  "lat": 48.6823161,
  "lon": 8.4836322,
  "tags": {
    "name": "Nonnenmiß",
    "place": "village",
    "wikidata": "Q112151502",
    "wikipedia": "de:Nonnenmiß"
  }
},
{
  "type": "node",
  "id": 118170250,
  "lat": 48.6974389,
  "lon": 8.4987983,
  "tags": {
    "name": "Sprollenhaus",
    "place": "village",
    "wikidata": "Q112151440",
    "wikipedia": "de:Sprollenhaus"
  }
},
{
  "type": "node",
  "id": 118170256,
  "lat": 48.6643851,
  "lon": 8.5235025,
  "tags": {
    "name": "Aichelberg",
    "place": "village",
    "wikidata": "Q112151434",
    "wikipedia": "de:Aichelberg (Bad Wildbad)"
  }
},
{
  "type": "node",
  "id": 118170272,
  "lat": 48.6420093,
  "lon": 8.5260078,
  "tags": {
    "name": "Oberweiler",
    "place": "village",
    "postal_code": "72213"
  }
},
{
  "type": "node",
  "id": 122366278,
  "lat": 48.6702423,
  "lon": 8.2329497,
  "tags": {
    "name": "Plättig-Bühlerhöhe",
    "place": "hamlet"
  }
},
{
  "type": "node",
  "id": 122382963,
  "lat": 48.5795344,
  "lon": 8.1363829,
  "tags": {
    "name": "Furschenbach",
    "place": "village"
  }
},
{
  "type": "node",
  "id": 122383129,
  "lat": 48.5750723,
  "lon": 8.2018027,
  "tags": {
    "name": "Hinterseebach",
    "place": "hamlet"
  }
},
{
  "type": "node",
  "id": 122419337,
  "lat": 48.6448143,
  "lon": 8.2309535,
  "tags": {
    "ele": "885",
    "is_in:country_code": "DE",
    "name": "Hundseck",
    "place": "hamlet",
    "postal_code": "77815"
  }
},
{
  "type": "node",
  "id": 122429607,
  "lat": 48.6155394,
  "lon": 8.2787672,
  "tags": {
    "name": "Hundsbach",
    "place": "hamlet"
  }
},
{
  "type": "node",
  "id": 122437513,
  "lat": 48.6349766,
  "lon": 8.3235538,
  "tags": {
    "name": "Erbersbronn",
    "place": "hamlet"
  }
},
{
  "type": "node",
  "id": 122461284,
  "lat": 48.6850731,
  "lon": 8.3643130,
  "tags": {
    "name": "Gausbach",
    "place": "village"
  }
},
{
  "type": "node",
  "id": 122470582,
  "lat": 48.6931033,
  "lon": 8.3426229,
  "tags": {
    "name": "Bermersbach",
    "place": "village",
    "postal_code": "76596"
  }
},
{
  "type": "node",
  "id": 122476299,
  "lat": 48.7273378,
  "lon": 8.3127472,
  "tags": {
    "name": "Schmalbach",
    "place": "hamlet"
  }
},
{
  "type": "node",
  "id": 122658025,
  "lat": 48.7990507,
  "lon": 8.4382557,
  "tags": {
    "name": "Bad Herrenalb",
    "name:ru": "Бад-Херренальб",
    "openGeoDB:auto_update": "population,is_in",
    "openGeoDB:combination_of_public_administration": "Verwaltungsgemeinschaft Bad Herrenalb",
    "openGeoDB:community_identification_number": "08235033",
    "openGeoDB:is_in": "Calw,Karlsruhe,Baden-Württemberg,Bundesrepublik Deutschland,Europe",
    "openGeoDB:is_in_loc_id": "574",
    "openGeoDB:license_plate_code": "CW",
    "openGeoDB:loc_id": "13925",
    "openGeoDB:name": "Bad Herrenalb",
    "openGeoDB:population": "7478",
    "openGeoDB:postal_codes": "76332",
    "openGeoDB:sort_name": "BAD HERRENALB",
    "openGeoDB:telephone_area_code": "07083",
    "openGeoDB:type": "Stadt",
    "openGeoDB:version": "0.2.6.11%20/%202007-12-04%20/%20http://fa-technik.adfc.de/code/opengeodb/dump/",
    "opengeodb:lat": "48.7988438",
    "opengeodb:lon": "8.438198",
    "place": "town",
    "population": "7478",
    "website": "https://www.badherrenalb.de/",
    "wikidata": "Q374242",
    "wikipedia": "de:Bad Herrenalb"
  }
},
{
  "type": "node",
  "id": 123730904,
  "lat": 48.6687895,
  "lon": 8.2752536,
  "tags": {
    "ele": "1002",
    "name": "Badener Höhe",
    "natural": "peak",
    "wikidata": "Q798922"
  }
},
{
  "type": "node",
  "id": 123733249,
  "lat": 48.5392268,
  "lon": 8.4412087,
  "tags": {
    "name": "Igelsberg",
    "place": "village",
    "postal_code": "72250"
  }
},
{
  "type": "node",
  "id": 130347770,
  "lat": 48.5680829,
  "lon": 8.0237404,
  "tags": {
    "name": "Erlach",
    "place": "village"
  }
},
{
  "type": "node",
  "id": 130360838,
  "lat": 48.5788666,
  "lon": 8.0498609,
  "tags": {
    "name": "Ulm",
    "place": "village",
    "wikidata": "Q2475296",
    "wikipedia": "de:Ulm (Renchen)"
  }
},
{
  "type": "node",
  "id": 130366403,
  "lat": 48.6058958,
  "lon": 8.0351657,
  "tags": {
    "name": "Önsbach",
    "place": "village"
  }
},
{
  "type": "node",
  "id": 130485458,
  "lat": 48.6625522,
  "lon": 8.0185421,
  "tags": {
    "name": "Gamshurst",
    "place": "village"
  }
},
{
  "type": "node",
  "id": 135631382,
  "lat": 48.1322687,
  "lon": 8.5281160,
  "tags": {
    "name": "Niedereschach",
    "name:prefix": "Gemeinde",
    "name:ru": "Нидерешах",
    "place": "village",
    "postal_code": "78078"
  }
},
{
  "type": "node",
  "id": 140455939,
  "lat": 48.2083110,
  "lon": 8.4127096,
  "tags": {
    "name": "Hutneck",
    "place": "hamlet"
  }
},
{
  "type": "node",
  "id": 140477342,
  "lat": 48.2104444,
  "lon": 8.4016782,
  "tags": {
    "name": "Schlangenbühl",
    "place": "hamlet"
  }
},
{
  "type": "node",
  "id": 140477357,
  "lat": 48.1528495,
  "lon": 8.3445916,
  "tags": {
    "name": "Brogen",
    "place": "hamlet"
  }
},
{
  "type": "node",
  "id": 140477598,
  "lat": 48.1735643,
  "lon": 8.3785684,
  "tags": {
    "name": "Sieh dich für",
    "place": "hamlet"
  }
},
{
  "type": "node",
  "id": 146152140,
  "lat": 48.2254780,
  "lon": 8.3852168,
  "tags": {
    "ele": "426",
    "name": "Schramberg",
    "name:uk": "Шрамберґ",
    "openGeoDB:combination_of_public_administration": "Verwaltungsgemeinschaft Schramberg",
    "openGeoDB:community_identification_number": "08325053",
    "openGeoDB:is_in_loc_id": "558",
    "openGeoDB:layer": "6",
    "openGeoDB:license_plate_code": "RW",
    "openGeoDB:loc_id": "23952",
    "openGeoDB:postal_codes": "78713",
    "openGeoDB:telephone_area_code": "07422",
    "place": "town",
    "population": "20716",
    "wikidata": "Q82886",
    "wikipedia": "de:Schramberg"
  }
},
{
  "type": "node",
  "id": 148606457,
  "lat": 48.1846233,
  "lon": 8.4570987,
  "tags": {
    "name": "Mariazell",
    "place": "village",
    "wikidata": "Q47538747"
  }
},
{
  "type": "node",
  "id": 148606478,
  "lat": 48.1960966,
  "lon": 8.4768146,
  "tags": {
    "name": "Locherhof",
    "place": "village",
    "postal_code": "78664",
    "wikipedia": "de:Eschbronn#Locherhof"
  }
},
{
  "type": "node",
  "id": 148642393,
  "lat": 48.2485356,
  "lon": 8.4899737,
  "tags": {
    "name": "Seedorf",
    "place": "village",
    "wikidata": "Q2264721",
    "wikipedia": "de:Seedorf (Dunningen)"
  }
},
{
  "type": "node",
  "id": 148642505,
  "lat": 48.2688319,
  "lon": 8.4856802,
  "tags": {
    "name": "Waldmössingen",
    "place": "village",
    "postal_code": "78713",
    "wikidata": "Q27479043"
  }
},
{
  "type": "node",
  "id": 160590200,
  "lat": 48.9800942,
  "lon": 8.0072656,
  "tags": {
    "name": "Frohnackerhof",
    "place": "hamlet"
  }
},
{
  "type": "node",
  "id": 162745040,
  "lat": 49.0824317,
  "lon": 8.0662001,
  "tags": {
    "ele": "146",
    "name": "Dierbach",
    "place": "village",
    "population": "553",
    "population:date": "2023-12-31",
    "postal_code": "76889",
    "source:population": "wikipedia",
    "website": "https://gmeinde-dierbach.de",
    "wikidata": "Q631875",
    "wikipedia": "de:Dierbach"
  }
},
{
  "type": "node",
  "id": 164184198,
  "lat": 48.7538447,
  "lon": 8.2644344,
  "tags": {
    "name": "Eckhöfe",
    "place": "hamlet"
  }
},
{
  "type": "node",
  "id": 170822396,
  "lat": 48.7636394,
  "lon": 8.3379924,
  "tags": {
    "ele": "174",
    "name": "Gernsbach",
    "openGeoDB:combination_of_public_administration": "Verwaltungsgemeinschaft Gernsbach",
    "openGeoDB:community_identification_number": "08216017",
    "openGeoDB:license_plate_code": "RA",
    "openGeoDB:loc_id": "16970",
    "openGeoDB:telephone_area_code": "07224",
    "place": "town",
    "population": "14307",
    "wikidata": "Q520119"
  }
},
{
  "type": "node",
  "id": 171652961,
  "lat": 48.7787163,
  "lon": 8.2710473,
  "tags": {
    "name": "Ebersteinburg",
    "place": "village"
  }
},
{
  "type": "node",
  "id": 171691717,
  "lat": 48.7806615,
  "lon": 8.3124105,
  "tags": {
    "name": "Selbach",
    "place": "village"
  }
},
{
  "type": "node",
  "id": 171728979,
  "lat": 48.8030291,
  "lon": 8.3201799,
  "tags": {
    "ele": "141",
    "name": "Gaggenau",
    "name:uk": "Ґаґґенау",
    "openGeoDB:community_identification_number": "08216015",
    "openGeoDB:is_in_loc_id": "364",
    "openGeoDB:license_plate_code": "RA",
    "openGeoDB:loc_id": "16796",
    "openGeoDB:telephone_area_code": "07225",
    "place": "town",
    "population": "28546",
    "postal_code": "76571",
    "wikidata": "Q504451",
    "wikipedia": "de:Gaggenau"
  }
},
{
  "type": "node",
  "id": 171814339,
  "lat": 48.7468858,
  "lon": 8.3017172,
  "tags": {
    "ele": "382",
    "mountain_pass": "yes",
    "name": "Nachtigall",
    "natural": "saddle"
  }
},
{
  "type": "node",
  "id": 171988326,
  "lat": 48.7659000,
  "lon": 8.3056623,
  "tags": {
    "name": "Staufenberg",
    "place": "village"
  }
},
{
  "type": "node",
  "id": 172155302,
  "lat": 48.7727444,
  "lon": 8.3860266,
  "tags": {
    "name": "Loffenau",
    "openGeoDB:auto_update": "population",
    "openGeoDB:combination_of_public_administration": "Verwaltungsgemeinschaft Gernsbach",
    "openGeoDB:community_identification_number": "08216029",
    "openGeoDB:is_in_loc_id": "364",
    "openGeoDB:layer": "6",
    "openGeoDB:license_plate_code": "RA",
    "openGeoDB:loc_id": "20357",
    "openGeoDB:name": "Loffenau",
    "openGeoDB:population": "2701",
    "openGeoDB:postal_codes": "76597",
    "openGeoDB:sort_name": "LOFFENAU",
    "openGeoDB:telephone_area_code": "07083",
    "openGeoDB:type": "Gemeinde",
    "openGeoDB:version": "0.2.6.11 / 2007-12-04 / http://fa-technik.adfc.de/code/opengeodb/dump/",
    "opengeodb:lat": "48.7727308",
    "opengeodb:lon": "8.3858511",
    "place": "village",
    "population": "2701"
  }
},
{
  "type": "node",
  "id": 172156765,
  "lat": 48.7693717,
  "lon": 8.4332877,
  "tags": {
    "name": "Plotzsägmühle",
    "place": "hamlet",
    "postal_code": "76332"
  }
},
{
  "type": "node",
  "id": 172156805,
  "lat": 48.7677135,
  "lon": 8.4361122,
  "tags": {
    "name": "Zieflensberg",
    "place": "hamlet"
  }
},
{
  "type": "node",
  "id": 172157226,
  "lat": 48.8618255,
  "lon": 8.4486959,
  "tags": {
    "name": "Marxzell",
    "name:prefix": "Gemeinde",
    "opengeodb:lat": "48.8616945",
    "opengeodb:lon": "8.4499669",
    "place": "village",
    "population": "5423",
    "wikidata": "Q542521",
    "wikipedia": "de:Marxzell"
  }
},
{
  "type": "node",
  "id": 183593968,
  "lat": 48.8316722,
  "lon": 8.3936223,
  "tags": {
    "name": "Althof",
    "place": "hamlet"
  }
},
{
  "type": "node",
  "id": 183616216,
  "lat": 48.8240204,
  "lon": 8.4154902,
  "tags": {
    "name": "Bernbach",
    "place": "village",
    "wikidata": "Q112213500"
  }
},
{
  "type": "node",
  "id": 183616324,
  "lat": 48.8118358,
  "lon": 8.4377862,
  "tags": {
    "name": "Hardtscheuer",
    "place": "hamlet"
  }
},
{
  "type": "node",
  "id": 187194270,
  "lat": 48.1275280,
  "lon": 8.0459132,
  "tags": {
    "ele": "906",
    "name": "Hörnleberg",
    "name:de": "Hörnleberg",
    "name:gsw": "Hörnliberg",
    "natural": "peak",
    "wikidata": "Q773086"
  }
},
{
  "type": "node",
  "id": 188961985,
  "lat": 47.9398612,
  "lon": 8.0770221,
  "tags": {
    "name": "Breitnau",
    "name:de": "Breitnau",
    "name:ru": "Брайтнау",
    "openGeoDB:auto_update": "population,is_in",
    "openGeoDB:combination_of_public_administration": "Verwaltungsgemeinschaft Hinterzarten",
    "openGeoDB:community_identification_number": "08315016",
    "openGeoDB:is_in": "Breisgau-Hochschwarzwald,Freiburg,Baden-Württemberg,Bundesrepublik Deutschland,Europe",
    "openGeoDB:is_in_loc_id": "331",
    "openGeoDB:layer": "6",
    "openGeoDB:license_plate_code": "FR",
    "openGeoDB:loc_id": "14927",
    "openGeoDB:name": "Breitnau",
    "openGeoDB:population": "1961",
    "openGeoDB:postal_codes": "79874",
    "openGeoDB:sort_name": "BREITNAU",
    "openGeoDB:telephone_area_code": "07652",
    "openGeoDB:type": "Gemeinde",
    "openGeoDB:version": "0.2.6.11 / 2007-12-04 / http://fa-technik.adfc.de/code/opengeodb/dump/",
    "opengeodb:lat": "47.9393257",
    "opengeodb:lon": "8.0785188",
    "place": "village",
    "population": "1961",
    "wikidata": "Q534202",
    "wikimedia_commons": "Category:Breitnau",
    "wikipedia": "de:Breitnau"
  }
},
{
  "type": "node",
  "id": 192353110,
  "lat": 47.9401160,
  "lon": 8.1176623,
  "tags": {
    "ele": "1191",
    "name": "Weißtannenhöhe",
    "natural": "peak",
    "prominence": "274",
    "wikidata": "Q25099535"
  }
},
{
  "type": "node",
  "id": 193632816,
  "lat": 48.1738732,
  "lon": 8.0713324,
  "tags": {
    "name": "Elzach",
    "name:gsw": "Elze",
    "name:prefix": "Stadt",
    "name:ru": "Эльцах",
    "place": "town",
    "population": "7157",
    "wikidata": "Q506773"
  }
},
{
  "type": "node",
  "id": 193632818,
  "lat": 48.1437659,
  "lon": 8.0227467,
  "tags": {
    "name": "Niederwinden",
    "place": "village",
    "wikidata": "Q47520114",
    "wikipedia": "de:Niederwinden (Winden)"
  }
},
{
  "type": "node",
  "id": 193632824,
  "lat": 48.1529480,
  "lon": 8.0450017,
  "tags": {
    "name": "Oberwinden",
    "place": "village"
  }
},
{
  "type": "node",
  "id": 193876769,
  "lat": 48.2561857,
  "lon": 8.4482817,
  "tags": {
    "name": "Heiligenbronn",
    "place": "village",
    "postal_code": "78713",
    "telephone_area_code": "07422",
    "wikidata": "Q1595153"
  }
},
{
  "type": "node",
  "id": 197946626,
  "lat": 48.1427148,
  "lon": 8.1974937,
  "tags": {
    "description": "Höhenlage zwischen 765 m – 1.163 m",
    "name": "Schonach im Schwarzwald",
    "phone": "+49 7652 12060",
    "place": "village",
    "population": "3997",
    "reg_name": "Schonach",
    "short_name": "Schonach",
    "website": "https://www.schonach.de/",
    "wikidata": "Q81817",
    "wikipedia": "de:Schonach im Schwarzwald"
  }
},
{
  "type": "node",
  "id": 201036578,
  "lat": 47.9011909,
  "lon": 8.1841608,
  "tags": {
    "ele": "1190",
    "name": "Hochfirst",
    "natural": "peak",
    "source": "survey",
    "summit:cross": "no",
    "summit:register": "no",
    "wikidata": "Q897231",
    "wikipedia": "de:Hochfirst (Schwarzwald)"
  }
},
{
  "type": "node",
  "id": 203853380,
  "lat": 48.6057023,
  "lon": 8.2021233,
  "tags": {
    "ele": "1164",
    "name": "Hornisgrinde",
    "natural": "peak",
    "wikidata": "Q650402",
    "wikipedia": "de:Hornisgrinde"
  }
},
{
  "type": "node",
  "id": 204878410,
  "lat": 48.7805403,
  "lon": 8.1881650,
  "tags": {
    "name": "Obere Breite",
    "place": "hamlet"
  }
},
{
  "type": "node",
  "id": 206951202,
  "lat": 48.4441653,
  "lon": 8.5134153,
  "tags": {
    "name": "Glatten",
    "name:prefix": "Gemeinde",
    "place": "village",
    "population": "2434",
    "postal_code": "72293",
    "wikidata": "Q80475",
    "wikipedia": "de:Glatten"
  }
},
{
  "type": "node",
  "id": 206953805,
  "lat": 48.4296749,
  "lon": 8.4713804,
  "tags": {
    "name": "Lombach",
    "place": "village",
    "postal_code": "72290",
    "wikidata": "Q1313161",
    "wikipedia": "de:Lombach"
  }
},
{
  "type": "node",
  "id": 206959858,
  "lat": 48.4148193,
  "lon": 8.4118635,
  "tags": {
    "name": "Ödenwald",
    "place": "hamlet",
    "postal_code": "72290"
  }
},
{
  "type": "node",
  "id": 206961320,
  "lat": 48.3954755,
  "lon": 8.4076923,
  "tags": {
    "name": "Schömberg",
    "place": "village",
    "postal_code": "72290",
    "wikidata": "Q2258651",
    "wikipedia": "de:Schömberg (Loßburg)"
  }
},
{
  "type": "node",
  "id": 206965322,
  "lat": 48.3318964,
  "lon": 8.3595568,
  "tags": {
    "name": "Vortal",
    "place": "hamlet",
    "postal_code": "77773"
  }
},
{
  "type": "node",
  "id": 207567897,
  "lat": 48.9132567,
  "lon": 8.5049232,
  "tags": {
    "name": "Langensteinbach",
    "place": "village",
    "population": "6300",
    "wikidata": "Q1700719",
    "wikipedia": "de:Langensteinbach (Karlsbad)"
  }
},
{
  "type": "node",
  "id": 207567901,
  "lat": 48.9237893,
  "lon": 8.4757301,
  "tags": {
    "name": "Reichenbach",
    "place": "village",
    "population": "5000"
  }
},
{
  "type": "node",
  "id": 207567907,
  "lat": 48.8677921,
  "lon": 8.5067607,
  "tags": {
    "name": "Ittersbach",
    "place": "village",
    "population": "3000",
    "wikidata": "Q1675326",
    "wikipedia": "de:Ittersbach"
  }
},
{
  "type": "node",
  "id": 208180790,
  "lat": 48.7456015,
  "lon": 8.2445968,
  "tags": {
    "name": "Gunzenbach",
    "place": "hamlet"
  }
},
{
  "type": "node",
  "id": 224155777,
  "lat": 48.6660155,
  "lon": 8.1333603,
  "tags": {
    "name": "Hub",
    "place": "hamlet",
    "wikidata": "Q38015836",
    "wikipedia": "de:Hub (Ottersweier)"
  }
},
{
  "type": "node",
  "id": 240024678,
  "lat": 48.5912850,
  "lon": 8.1177267,
  "tags": {
    "name": "Kappelrodeck",
    "openGeoDB:auto_update": "population,place,name,is_in",
    "openGeoDB:combination_of_public_administration": "Verwaltungsgemeinschaft Kappelrodeck",
    "openGeoDB:community_identification_number": "08317056",
    "openGeoDB:is_in": "Ortenaukreis,Freiburg,Baden-Württemberg,Bundesrepublik Deutschland,Europe",
    "openGeoDB:is_in_loc_id": "553",
    "openGeoDB:layer": "6",
    "openGeoDB:license_plate_code": "OG",
    "openGeoDB:loc_id": "19085",
    "openGeoDB:location": "political_structure",
    "openGeoDB:name": "Kappelrodeck",
    "openGeoDB:population": "5804",
    "openGeoDB:postal_codes": "77876",
    "openGeoDB:sort_name": "KAPPELRODECK",
    "openGeoDB:telephone_area_code": "07842",
    "openGeoDB:type": "Gemeinde",
    "openGeoDB:version": "0.2.6.11 / 2007-12-04 / http://fa-technik.adfc.de/code/opengeodb/dump/",
    "place": "village",
    "population": "5804",
    "wikidata": "Q538599",
    "wikipedia": "de:Kappelrodeck"
  }
},
{
  "type": "node",
  "id": 240026806,
  "lat": 48.3169714,
  "lon": 8.2172428,
  "tags": {
    "name": "Oberwolfach",
    "openGeoDB:auto_update": "population,place,name,is_in",
    "openGeoDB:combination_of_public_administration": "Verwaltungsgemeinschaft Wolfach",
    "openGeoDB:community_identification_number": "08317093",
    "openGeoDB:is_in": "Ortenaukreis,Freiburg,Baden-Württemberg,Bundesrepublik Deutschland,Europe",
    "openGeoDB:is_in_loc_id": "553",
    "openGeoDB:layer": "6",
    "openGeoDB:license_plate_code": "OG",
    "openGeoDB:loc_id": "22041",
    "openGeoDB:location": "political_structure",
    "openGeoDB:name": "Oberwolfach",
    "openGeoDB:population": "2754",
    "openGeoDB:postal_codes": "77709",
    "openGeoDB:sort_name": "OBERWOLFACH",
    "openGeoDB:telephone_area_code": "07834",
    "openGeoDB:type": "Gemeinde",
    "openGeoDB:version": "0.2.6.11 / 2007-12-04 / http://fa-technik.adfc.de/code/opengeodb/dump/",
    "place": "village",
    "population": "2754",
    "wikidata": "Q557688",
    "wikipedia": "de:Oberwolfach"
  }
},
{
  "type": "node",
  "id": 240030131,
  "lat": 48.1053473,
  "lon": 8.2034483,
  "tags": {
    "name": "Schönwald",
    "place": "village",
    "population": "2482",
    "wikidata": "Q33483036"
  }
},
{
  "type": "node",
  "id": 240030365,
  "lat": 47.9624362,
  "lon": 8.2710482,
  "tags": {
    "name": "Eisenbach",
    "name:prefix": "Gemeinde",
    "name:ru": "Айзенбах",
    "place": "village",
    "population": "2270",
    "wikidata": "Q117878",
    "wikipedia": "de:Eisenbach (Hochschwarzwald)"
  }
},
{
  "type": "node",
  "id": 240033741,
  "lat": 48.9889220,
  "lon": 8.2475747,
  "tags": {
    "de:amtlicher_gemeindeschluessel": "07334021",
    "name": "Neuburg am Rhein",
    "place": "village",
    "population": "2549",
    "short_name": "Neuburg",
    "wikidata": "Q570888",
    "wikipedia": "de:Neuburg am Rhein"
  }
},
{
  "type": "node",
  "id": 240034605,
  "lat": 48.1257642,
  "lon": 8.3330247,
  "tags": {
    "name": "St. Georgen",
    "name:prefix": "Stadt",
    "name:ru": "Санкт-Георген",
    "official_name": "St. Georgen im Schwarzwald",
    "place": "town",
    "population": "13086",
    "population:date": "2019-12-31",
    "source:population": "https://www.st-georgen.de/Startseite/Leben+in+St_+Georgen/Daten+_+Fakten.html",
    "wikidata": "Q83036",
    "wikipedia": "de:St. Georgen im Schwarzwald"
  }
},
{
  "type": "node",
  "id": 240035415,
  "lat": 48.5206428,
  "lon": 8.1146431,
  "tags": {
    "is_in": "Ortenaukreis,Freiburg,Baden-Württemberg,Bundesrepublik Deutschland,Europe",
    "name": "Lautenbach",
    "openGeoDB:auto_update": "population,place,is_in",
    "openGeoDB:combination_of_public_administration": "Verwaltungsgemeinschaft Oberkirch",
    "openGeoDB:community_identification_number": "08317067",
    "openGeoDB:is_in": "Ortenaukreis,Freiburg,Baden-Württemberg,Bundesrepublik Deutschland,Europe",
    "openGeoDB:is_in_loc_id": "553",
    "openGeoDB:layer": "6",
    "openGeoDB:license_plate_code": "OG",
    "openGeoDB:loc_id": "20031",
    "openGeoDB:location": "political_structure",
    "openGeoDB:name": "Lautenbach (Renchtal)",
    "openGeoDB:population": "1928",
    "openGeoDB:postal_codes": "77794",
    "openGeoDB:sort_name": "LAUTENBACH",
    "openGeoDB:telephone_area_code": "07802",
    "openGeoDB:type": "Gemeinde",
    "openGeoDB:version": "0.2.6.11 / 2007-12-04 / http://fa-technik.adfc.de/code/opengeodb/dump/",
    "place": "village",
    "population": "1928",
    "wikidata": "Q472934",
    "wikipedia": "de:Lautenbach (Ortenaukreis)"
  }
},
{
  "type": "node",
  "id": 240039202,
  "lat": 48.4035425,
  "lon": 8.0153059,
  "tags": {
    "name": "Gengenbach",
    "name:prefix": "Stadt",
    "name:ru": "Генгенбах",
    "place": "town",
    "population": "11086",
    "wikidata": "Q505495"
  }
},
{
  "type": "node",
  "id": 240042255,
  "lat": 47.9534194,
  "lon": 8.4959257,
  "tags": {
    "name": "Donaueschingen",
    "name:ru": "Донауэшинген",
    "name:uk": "Донауешинґен",
    "openGeoDB:combination_of_public_administration": "Verwaltungsgemeinschaft Donaueschingen",
    "openGeoDB:community_identification_number": "08326012",
    "openGeoDB:license_plate_code": "VS",
    "openGeoDB:loc_id": "15743",
    "openGeoDB:location": "political_structure",
    "openGeoDB:telephone_area_code": "0771",
    "place": "town",
    "population": "21434",
    "postal_code": "78166",
    "wikidata": "Q83062",
    "wikipedia": "de:Donaueschingen"
  }
},
{
  "type": "node",
  "id": 240044847,
  "lat": 48.1401934,
  "lon": 8.4194000,
  "tags": {
    "name": "Königsfeld im Schwarzwald",
    "name:prefix": "Gemeinde",
    "place": "village",
    "population": "6155",
    "website": "https://www.koenigsfeld.de"
  }
},
{
  "type": "node",
  "id": 240045319,
  "lat": 48.7969905,
  "lon": 8.4936307,
  "tags": {
    "name": "Dobel",
    "place": "village",
    "population": "2256",
    "wikidata": "Q534665",
    "wikipedia": "de:Dobel"
  }
},
{
  "type": "node",
  "id": 240045834,
  "lat": 49.0196679,
  "lon": 8.2474130,
  "tags": {
    "de:amtlicher_gemeindeschluessel": "07334008",
    "name": "Hagenbach",
    "place": "village",
    "population": "5420",
    "wikidata": "Q541669",
    "wikipedia": "de:Hagenbach"
  }
},
{
  "type": "node",
  "id": 240046772,
  "lat": 48.3607918,
  "lon": 8.4835636,
  "tags": {
    "name": "Betzweiler",
    "openGeoDB:auto_update": "population,place,name,is_in",
    "openGeoDB:combination_of_public_administration": "Verwaltungsgemeinschaft Loßburg",
    "openGeoDB:community_identification_number": "08237008",
    "openGeoDB:is_in": "Freudenstadt,Karlsruhe,Baden-Württemberg,Bundesrepublik Deutschland,Europe",
    "openGeoDB:is_in_loc_id": "581",
    "openGeoDB:layer": "6",
    "openGeoDB:license_plate_code": "FDS",
    "openGeoDB:loc_id": "14430",
    "openGeoDB:location": "political_structure",
    "openGeoDB:name": "Betzweiler",
    "openGeoDB:population": "1439",
    "openGeoDB:postal_codes": "72291",
    "openGeoDB:sort_name": "BETZWEILER",
    "openGeoDB:telephone_area_code": "07455",
    "openGeoDB:type": "Gemeinde",
    "openGeoDB:version": "0.2.6.11 / 2007-12-04 / http://fa-technik.adfc.de/code/opengeodb/dump/",
    "place": "village",
    "population": "1439",
    "wikidata": "Q850675",
    "wikipedia": "de:Betzweiler"
  }
},
{
  "type": "node",
  "id": 240047232,
  "lat": 48.0222311,
  "lon": 8.5299837,
  "tags": {
    "alt_name": "Diirä",
    "brand:website": "https://badduerrheim.de/",
    "ele": "703",
    "name": "Bad Dürrheim",
    "name:de": "Bad Dürrheim",
    "name:ru": "Бад-Дюрхайм",
    "openGeoDB:auto_update": "population,place,name",
    "openGeoDB:community_identification_number": "08326003",
    "openGeoDB:layer": "6",
    "openGeoDB:license_plate_code": "VS",
    "openGeoDB:loc_id": "13895",
    "openGeoDB:location": "political_structure",
    "openGeoDB:name": "Bad Dürrheim (Schwarzwald)",
    "openGeoDB:population": "12674",
    "openGeoDB:postal_codes": "78073",
    "openGeoDB:sort_name": "BAD DUERRHEIM",
    "openGeoDB:telephone_area_code": "07726",
    "openGeoDB:type": "Stadt",
    "openGeoDB:version": "0.2.6.11 / 2007-12-04 / http://fa-technik.adfc.de/code/opengeodb/dump/",
    "place": "town",
    "population": "13260",
    "website": "https://www.bad-duerrheim.info",
    "wikidata": "Q82770",
    "wikipedia": "de:Bad Dürrheim"
  }
},
{
  "type": "node",
  "id": 240048350,
  "lat": 49.0483000,
  "lon": 8.0369400,
  "tags": {
    "name": "Steinfeld",
    "place": "village",
    "population": "1858",
    "wikidata": "Q660415",
    "wikipedia": "de:Steinfeld (Pfalz)"
  }
},
{
  "type": "node",
  "id": 240048810,
  "lat": 48.6485831,
  "lon": 8.1292199,
  "tags": {
    "name": "Lauf",
    "openGeoDB:auto_update": "population,place,is_in",
    "openGeoDB:combination_of_public_administration": "Verwaltungsgemeinschaft Achern",
    "openGeoDB:community_identification_number": "08317068",
    "openGeoDB:is_in": "Ortenaukreis,Freiburg,Baden-Württemberg,Bundesrepublik Deutschland,Europe",
    "openGeoDB:is_in_loc_id": "553",
    "openGeoDB:layer": "6",
    "openGeoDB:license_plate_code": "OG",
    "openGeoDB:loc_id": "20010",
    "openGeoDB:location": "political_structure",
    "openGeoDB:name": "Lauf (Baden)",
    "openGeoDB:population": "3992",
    "openGeoDB:postal_codes": "77886",
    "openGeoDB:sort_name": "LAUF",
    "openGeoDB:telephone_area_code": "07841",
    "openGeoDB:type": "Gemeinde",
    "openGeoDB:version": "0.2.6.11 / 2007-12-04 / http://fa-technik.adfc.de/code/opengeodb/dump/",
    "place": "village",
    "population": "3992",
    "wikidata": "Q632914",
    "wikipedia": "de:Lauf (Baden)"
  }
},
{
  "type": "node",
  "id": 240049572,
  "lat": 48.1298016,
  "lon": 8.2322710,
  "tags": {
    "name": "Triberg",
    "name:prefix": "Stadt",
    "official_name": "Triberg im Schwarzwald",
    "place": "town",
    "postal_code": "78098",
    "wikidata": "Q83271"
  }
},
{
  "type": "node",
  "id": 240049587,
  "lat": 47.9607582,
  "lon": 8.0092808,
  "tags": {
    "name": "Buchenbach",
    "name:ru": "Бухенбах",
    "place": "village",
    "population": "3301",
    "wikidata": "Q515977",
    "wikipedia": "de:Buchenbach"
  }
},
{
  "type": "node",
  "id": 240049589,
  "lat": 48.9820168,
  "lon": 8.1381589,
  "tags": {
    "name": "Scheibenhardt",
    "place": "village",
    "population": "693",
    "wikidata": "Q657728",
    "wikipedia": "de:Scheibenhardt"
  }
},
{
  "type": "node",
  "id": 240050573,
  "lat": 48.7251415,
  "lon": 8.0072464,
  "tags": {
    "name": "Lichtenau",
    "name:prefix": "Stadt",
    "note": "population der Kernstadt: ca. 2000",
    "place": "village",
    "population": "5081",
    "wikidata": "Q32613737"
  }
},
{
  "type": "node",
  "id": 240051835,
  "lat": 48.2769011,
  "lon": 8.0871643,
  "tags": {
    "name": "Haslach im Kinzigtal",
    "name:gsw": "Hâsle",
    "name:prefix": "Stadt",
    "name:ru": "Хаслах (Кинцигталь)",
    "place": "town",
    "population": "6874",
    "wikidata": "Q519729"
  }
},
{
  "type": "node",
  "id": 240052366,
  "lat": 49.0543232,
  "lon": 8.2667399,
  "tags": {
    "de:amtlicher_gemeindeschluessel": "07334501",
    "last_checked": "2020-04-30",
    "name": "Wörth am Rhein",
    "place": "town",
    "population": "18123",
    "short_name": "Wörth",
    "website": "https://www.woerth.de/sv_woerth/",
    "wikidata": "Q522165",
    "wikipedia": "de:Wörth am Rhein"
  }
},
{
  "type": "node",
  "id": 240052642,
  "lat": 48.6300161,
  "lon": 8.0735581,
  "tags": {
    "ele": "145",
    "name": "Achern",
    "name:als": "Achre",
    "name:ar": "آخرن",
    "name:fa": "آخرن",
    "name:ru": "Ахерн",
    "name:sr": "Ахерн",
    "name:uk": "Ахерн",
    "name:zh": "阿赫恩",
    "openGeoDB:combination_of_public_administration": "Verwaltungsgemeinschaft Achern",
    "openGeoDB:community_identification_number": "08317001",
    "openGeoDB:is_in_loc_id": "553",
    "openGeoDB:license_plate_code": "OG",
    "openGeoDB:loc_id": "13371",
    "openGeoDB:name": "Achern (Baden)",
    "openGeoDB:telephone_area_code": "07841",
    "place": "town",
    "population": "24618",
    "postal_code": "77855",
    "wikidata": "Q373824",
    "wikipedia": "de:Achern"
  }
},
{
  "type": "node",
  "id": 240060483,
  "lat": 48.0777092,
  "lon": 8.3659473,
  "tags": {
    "name": "Unterkirnach",
    "name:ru": "Унтеркирнах",
    "openGeoDB:auto_update": "population,place,name,is_in",
    "openGeoDB:combination_of_public_administration": "Verwaltungsgemeinschaft Villingen-Schwenningen",
    "openGeoDB:community_identification_number": "08326065",
    "openGeoDB:is_in": "Schwarzwald-Baar-Kreis,Freiburg,Baden-Württemberg,Bundesrepublik Deutschland,Europe",
    "openGeoDB:is_in_loc_id": "561",
    "openGeoDB:layer": "6",
    "openGeoDB:license_plate_code": "VS",
    "openGeoDB:loc_id": "25249",
    "openGeoDB:location": "political_structure",
    "openGeoDB:name": "Unterkirnach",
    "openGeoDB:population": "2923",
    "openGeoDB:postal_codes": "78089",
    "openGeoDB:sort_name": "UNTERKIRNACH",
    "openGeoDB:telephone_area_code": "07721",
    "openGeoDB:type": "Gemeinde",
    "openGeoDB:version": "0.2.6.11 / 2007-12-04 / http://fa-technik.adfc.de/code/opengeodb/dump/",
    "place": "village",
    "population": "2923",
    "wikidata": "Q81419",
    "wikipedia": "de:Unterkirnach"
  }
},
{
  "type": "node",
  "id": 240061366,
  "lat": 48.0178600,
  "lon": 8.0358335,
  "tags": {
    "name": "St. Peter",
    "name:de": "St. Peter",
    "name:ru": "Санкт-Петер",
    "openGeoDB:auto_update": "population,place,name,is_in",
    "openGeoDB:combination_of_public_administration": "Verwaltungsgemeinschaft Sankt Peter",
    "openGeoDB:community_identification_number": "08315095",
    "openGeoDB:is_in": "Breisgau-Hochschwarzwald,Freiburg,Baden-Württemberg,Bundesrepublik Deutschland,Europe",
    "openGeoDB:is_in_loc_id": "331",
    "openGeoDB:layer": "6",
    "openGeoDB:license_plate_code": "FR",
    "openGeoDB:loc_id": "23549",
    "openGeoDB:location": "political_structure",
    "openGeoDB:name": "Sankt Peter (Schwarzwald)",
    "openGeoDB:population": "2502",
    "openGeoDB:postal_codes": "79271",
    "openGeoDB:sort_name": "ST. PETER",
    "openGeoDB:telephone_area_code": "07660",
    "openGeoDB:type": "Gemeinde",
    "openGeoDB:version": "0.2.6.11 / 2007-12-04 / http://fa-technik.adfc.de/code/opengeodb/dump/",
    "place": "village",
    "population": "2529",
    "website": "http://www.st-peter-schwarzwald.de",
    "wikidata": "Q557671",
    "wikipedia": "de:St. Peter (Hochschwarzwald)"
  }
},
{
  "type": "node",
  "id": 240063429,
  "lat": 49.0446879,
  "lon": 8.0199273,
  "tags": {
    "name": "Kapsweyer",
    "place": "village",
    "population": "1029",
    "wikidata": "Q564476",
    "wikipedia": "de:Kapsweyer"
  }
},
{
  "type": "node",
  "id": 240065155,
  "lat": 48.8584568,
  "lon": 8.2040452,
  "tags": {
    "ele": "123",
    "name": "Rastatt",
    "name:de": "Rastatt",
    "name:sr": "Раштат",
    "name:uk": "Раштат",
    "openGeoDB:combination_of_public_administration": "Verwaltungsgemeinschaft Rastatt",
    "openGeoDB:community_identification_number": "08216043",
    "openGeoDB:license_plate_code": "RA",
    "openGeoDB:loc_id": "22813",
    "openGeoDB:telephone_area_code": "07222",
    "place": "town",
    "population": "47110",
    "postal_code": "76437",
    "wikidata": "Q6874",
    "wikipedia": "de:Rastatt"
  }
},
{
  "type": "node",
  "id": 240068522,
  "lat": 48.2985845,
  "lon": 8.2226080,
  "tags": {
    "name": "Wolfach",
    "name:ru": "Вольфах",
    "openGeoDB:auto_update": "population,place,name,is_in",
    "openGeoDB:combination_of_public_administration": "Verwaltungsgemeinschaft Wolfach",
    "openGeoDB:community_identification_number": "08317145",
    "openGeoDB:is_in": "Ortenaukreis,Freiburg,Baden-Württemberg,Bundesrepublik Deutschland,Europe",
    "openGeoDB:is_in_loc_id": "553",
    "openGeoDB:layer": "6",
    "openGeoDB:license_plate_code": "OG",
    "openGeoDB:loc_id": "26379",
    "openGeoDB:location": "political_structure",
    "openGeoDB:name": "Wolfach",
    "openGeoDB:population": "5949",
    "openGeoDB:postal_codes": "77709",
    "openGeoDB:sort_name": "WOLFACH",
    "openGeoDB:telephone_area_code": "07834",
    "openGeoDB:type": "Stadt",
    "openGeoDB:version": "0.2.6.11 / 2007-12-04 / http://fa-technik.adfc.de/code/opengeodb/dump/",
    "place": "town",
    "population": "5949",
    "wikidata": "Q506780"
  }
},
{
  "type": "node",
  "id": 240069782,
  "lat": 48.2878080,
  "lon": 8.1114320,
  "tags": {
    "is_in": "Ortenaukreis,Freiburg,Baden-Württemberg,Bundesrepublik Deutschland,Europe",
    "name": "Fischerbach",
    "openGeoDB:auto_update": "population,place,name,is_in",
    "openGeoDB:combination_of_public_administration": "Verwaltungsgemeinschaft Haslach im Kinzigtal",
    "openGeoDB:community_identification_number": "08317029",
    "openGeoDB:is_in": "Ortenaukreis,Freiburg,Baden-Württemberg,Bundesrepublik Deutschland,Europe",
    "openGeoDB:is_in_loc_id": "553",
    "openGeoDB:layer": "6",
    "openGeoDB:license_plate_code": "OG",
    "openGeoDB:loc_id": "16517",
    "openGeoDB:location": "political_structure",
    "openGeoDB:name": "Fischerbach",
    "openGeoDB:population": "1702",
    "openGeoDB:postal_codes": "77716",
    "openGeoDB:sort_name": "FISCHERBACH",
    "openGeoDB:telephone_area_code": "07832",
    "openGeoDB:type": "Gemeinde",
    "openGeoDB:version": "0.2.6.11 / 2007-12-04 / http://fa-technik.adfc.de/code/opengeodb/dump/",
    "place": "village",
    "population": "1702"
  }
},
{
  "type": "node",
  "id": 240071322,
  "lat": 48.0512198,
  "lon": 8.2073776,
  "tags": {
    "description": "Die Stadt Furtwangen im Schwarzwald ist ein prädikatisierter Erholungsort im Naturpark Südschwarzwald.",
    "ele": "879",
    "name": "Furtwangen",
    "name:prefix": "Stadt",
    "name:ru": "Фуртванген",
    "official_name": "Furtwangen im Schwarzwald",
    "place": "town",
    "population": "9004",
    "population:date": "2022-12-31",
    "source:population": "wikipedia",
    "tourism": "yes",
    "wikidata": "Q82717",
    "wikipedia": "de:Furtwangen im Schwarzwald"
  }
},
{
  "type": "node",
  "id": 240074169,
  "lat": 49.0403225,
  "lon": 7.9957028,
  "tags": {
    "ele": "160",
    "name": "Schweighofen",
    "name:ru": "Швайгхофен",
    "name:zh": "施魏格霍芬",
    "place": "village",
    "population": "579",
    "postal_code": "76889",
    "wikidata": "Q643463",
    "wikipedia": "de:Schweighofen"
  }
},
{
  "type": "node",
  "id": 240075403,
  "lat": 48.2540384,
  "lon": 8.1105827,
  "tags": {
    "name": "Mühlenbach",
    "openGeoDB:auto_update": "population,place,is_in",
    "openGeoDB:combination_of_public_administration": "Verwaltungsgemeinschaft Haslach im Kinzigtal",
    "openGeoDB:community_identification_number": "08317078",
    "openGeoDB:is_in": "Ortenaukreis,Freiburg,Baden-Württemberg,Bundesrepublik Deutschland,Europe",
    "openGeoDB:is_in_loc_id": "553",
    "openGeoDB:layer": "6",
    "openGeoDB:license_plate_code": "OG",
    "openGeoDB:loc_id": "21144",
    "openGeoDB:location": "political_structure",
    "openGeoDB:name": "Mühlenbach (Baden)",
    "openGeoDB:population": "1719",
    "openGeoDB:postal_codes": "77796",
    "openGeoDB:sort_name": "MUEHLENBACH",
    "openGeoDB:telephone_area_code": "07832",
    "openGeoDB:type": "Gemeinde",
    "openGeoDB:version": "0.2.6.11 / 2007-12-04 / http://fa-technik.adfc.de/code/opengeodb/dump/",
    "place": "village",
    "population": "1719",
    "wikidata": "Q262485",
    "wikipedia": "de:Mühlenbach (Schwarzwald)"
  }
},
{
  "type": "node",
  "id": 240080944,
  "lat": 48.9685490,
  "lon": 8.3097117,
  "tags": {
    "ele": "116",
    "name": "Rheinstetten",
    "name:de": "Rheinstetten",
    "name:ru": "Райнштеттен",
    "name:uk": "Райнштеттен",
    "openGeoDB:community_identification_number": "08215108",
    "openGeoDB:is_in_loc_id": "585",
    "openGeoDB:license_plate_code": "KA",
    "openGeoDB:loc_id": "23065",
    "openGeoDB:name": "Rheinstetten (Baden)",
    "openGeoDB:postal_codes": "76287",
    "openGeoDB:telephone_area_code": "07242",
    "place": "town",
    "population": "20074",
    "wikidata": "Q520595",
    "wikipedia": "de:Rheinstetten"
  }
},
{
  "type": "node",
  "id": 240082036,
  "lat": 48.2836305,
  "lon": 8.1749720,
  "tags": {
    "name": "Hausach",
    "name:prefix": "Stadt",
    "name:ru": "Хаузах",
    "place": "town",
    "population": "5807",
    "wikidata": "Q506856"
  }
},
{
  "type": "node",
  "id": 240082935,
  "lat": 48.0458156,
  "lon": 8.3039184,
  "tags": {
    "name": "Vöhrenbach",
    "name:prefix": "Stadt",
    "name:ru": "Фёренбах",
    "place": "village",
    "population": "4112",
    "wikidata": "Q83117"
  }
},
{
  "type": "node",
  "id": 240085042,
  "lat": 48.2589583,
  "lon": 8.0677539,
  "tags": {
    "name": "Hofstetten",
    "openGeoDB:auto_update": "population,place,is_in",
    "openGeoDB:combination_of_public_administration": "Verwaltungsgemeinschaft Haslach im Kinzigtal",
    "openGeoDB:community_identification_number": "08317046",
    "openGeoDB:is_in": "Ortenaukreis,Freiburg,Baden-Württemberg,Bundesrepublik Deutschland,Europe",
    "openGeoDB:is_in_loc_id": "553",
    "openGeoDB:layer": "6",
    "openGeoDB:license_plate_code": "OG",
    "openGeoDB:loc_id": "18481",
    "openGeoDB:location": "political_structure",
    "openGeoDB:name": "Hofstetten (Kinzigtal)",
    "openGeoDB:population": "1675",
    "openGeoDB:postal_codes": "77716",
    "openGeoDB:sort_name": "HOFSTETTEN",
    "openGeoDB:telephone_area_code": "07832",
    "openGeoDB:type": "Gemeinde",
    "openGeoDB:version": "0.2.6.11 / 2007-12-04 / http://fa-technik.adfc.de/code/opengeodb/dump/",
    "place": "village",
    "population": "1675",
    "wikidata": "Q550704",
    "wikipedia": "de:Hofstetten (Baden)"
  }
},
{
  "type": "node",
  "id": 240085277,
  "lat": 48.7296780,
  "lon": 8.3538550,
  "tags": {
    "ele": "228",
    "name": "Weisenbach",
    "openGeoDB:combination_of_public_administration": "Verwaltungsgemeinschaft Gernsbach",
    "openGeoDB:community_identification_number": "08216059",
    "openGeoDB:license_plate_code": "RA",
    "openGeoDB:loc_id": "25853",
    "openGeoDB:population": "2656",
    "openGeoDB:telephone_area_code": "07224",
    "place": "village"
  }
},
{
  "type": "node",
  "id": 240085607,
  "lat": 48.1830474,
  "lon": 8.4084662,
  "tags": {
    "is_in": "Rottweil,Freiburg,Baden-Württemberg,Bundesrepublik Deutschland,Europe",
    "name": "Hardt",
    "openGeoDB:auto_update": "population,place,name,is_in",
    "openGeoDB:combination_of_public_administration": "Verwaltungsgemeinschaft Schramberg",
    "openGeoDB:community_identification_number": "08325024",
    "openGeoDB:is_in": "Rottweil,Freiburg,Baden-Württemberg,Bundesrepublik Deutschland,Europe",
    "openGeoDB:is_in_loc_id": "558",
    "openGeoDB:layer": "6",
    "openGeoDB:license_plate_code": "RW",
    "openGeoDB:loc_id": "17892",
    "openGeoDB:location": "political_structure",
    "openGeoDB:name": "Hardt bei Schramberg",
    "openGeoDB:population": "2619",
    "openGeoDB:postal_codes": "78739",
    "openGeoDB:sort_name": "HARDT",
    "openGeoDB:telephone_area_code": "07422",
    "openGeoDB:type": "Gemeinde",
    "openGeoDB:version": "0.2.6.11 / 2007-12-04 / http://fa-technik.adfc.de/code/opengeodb/dump/",
    "place": "village",
    "population": "2619",
    "wikidata": "Q83040",
    "wikipedia": "de:Hardt (Schwarzwald)"
  }
},
{
  "type": "node",
  "id": 240088923,
  "lat": 48.3502837,
  "lon": 8.5078535,
  "tags": {
    "name": "Dornhan",
    "name:prefix": "Stadt",
    "name:ru": "Дорнхан",
    "place": "town",
    "population": "6160",
    "wikidata": "Q83304",
    "wikipedia": "de:Dornhan"
  }
},
{
  "type": "node",
  "id": 240091764,
  "lat": 48.6186096,
  "lon": 8.1280222,
  "tags": {
    "local_name": "Saschwalle",
    "name": "Sasbachwalden",
    "openGeoDB:auto_update": "population,place,name,is_in",
    "openGeoDB:combination_of_public_administration": "Verwaltungsgemeinschaft Achern",
    "openGeoDB:community_identification_number": "08317118",
    "openGeoDB:is_in": "Ortenaukreis,Freiburg,Baden-Württemberg,Bundesrepublik Deutschland,Europe",
    "openGeoDB:is_in_loc_id": "553",
    "openGeoDB:layer": "6",
    "openGeoDB:license_plate_code": "OG",
    "openGeoDB:loc_id": "23568",
    "openGeoDB:location": "political_structure",
    "openGeoDB:name": "Sasbachwalden",
    "openGeoDB:population": "2546",
    "openGeoDB:postal_codes": "77887",
    "openGeoDB:sort_name": "SASBACHWALDEN",
    "openGeoDB:telephone_area_code": "07841",
    "openGeoDB:type": "Gemeinde",
    "openGeoDB:version": "0.2.6.11 / 2007-12-04 / http://fa-technik.adfc.de/code/opengeodb/dump/",
    "place": "village",
    "population": "2546",
    "wikidata": "Q533808",
    "wikipedia": "de:Sasbachwalden"
  }
},
{
  "type": "node",
  "id": 240094927,
  "lat": 48.6790385,
  "lon": 8.3594916,
  "tags": {
    "name": "Forbach",
    "name:prefix": "Gemeinde",
    "place": "village",
    "population": "5589",
    "website": "https://www.forbach.de/"
  }
},
{
  "type": "node",
  "id": 240097602,
  "lat": 48.7609939,
  "lon": 8.1654269,
  "tags": {
    "ele": "128",
    "name": "Sinzheim",
    "name:prefix": "Gemeinde",
    "place": "village",
    "population": "11021",
    "postal_code": "76547"
  }
},
{
  "type": "node",
  "id": 240097784,
  "lat": 48.0077580,
  "lon": 8.0927702,
  "tags": {
    "name": "St. Märgen",
    "openGeoDB:auto_update": "population,place,name,is_in",
    "openGeoDB:combination_of_public_administration": "Verwaltungsgemeinschaft Sankt Peter",
    "openGeoDB:community_identification_number": "08315094",
    "openGeoDB:is_in": "Breisgau-Hochschwarzwald,Freiburg,Baden-Württemberg,Bundesrepublik Deutschland,Europe",
    "openGeoDB:is_in_loc_id": "331",
    "openGeoDB:layer": "6",
    "openGeoDB:license_plate_code": "FR",
    "openGeoDB:loc_id": "23544",
    "openGeoDB:location": "political_structure",
    "openGeoDB:name": "St. Märgen",
    "openGeoDB:population": "1885",
    "openGeoDB:postal_codes": "79274",
    "openGeoDB:sort_name": "ST. MAERGEN",
    "openGeoDB:telephone_area_code": "07669",
    "openGeoDB:type": "Gemeinde",
    "openGeoDB:version": "0.2.6.11 / 2007-12-04 / http://fa-technik.adfc.de/code/opengeodb/dump/",
    "place": "village",
    "population": "1864",
    "postal_code": "79274",
    "wikidata": "Q550625",
    "wikipedia": "de:St. Märgen"
  }
},
{
  "type": "node",
  "id": 240097815,
  "lat": 49.0650000,
  "lon": 8.0772200,
  "tags": {
    "name": "Vollmersweiler",
    "place": "village",
    "population": "223",
    "wikidata": "Q569279",
    "wikipedia": "de:Vollmersweiler"
  }
},
{
  "type": "node",
  "id": 240099245,
  "lat": 48.7610716,
  "lon": 8.2399590,
  "tags": {
    "heritage": "1",
    "heritage:operator": "whc",
    "heritage:ref": "1613",
    "heritage:website": "https://whc.unesco.org/en/list/1613/",
    "name": "Baden-Baden",
    "name:ar": "بادن بادن",
    "name:bg": "Баден-Баден",
    "name:el": "Μπάντεν-Μπάντεν",
    "name:fa": "بادن-بادن",
    "name:gsw": "Bade-Bade",
    "name:he": "באדן-באדן",
    "name:hy": "Բադեն-Բադեն",
    "name:ja": "バーデン・バーデン",
    "name:ka": "ბადენ-ბადენი",
    "name:ko": "바덴바덴",
    "name:la": "Aquae",
    "name:ru": "Баден-Баден",
    "name:sr": "Баден-Баден",
    "name:uk": "Баден-Баден",
    "name:yi": "באדען-באדען",
    "name:zh": "巴登-巴登",
    "openGeoDB:community_identification_number": "08211000",
    "openGeoDB:license_plate_code": "BAD",
    "openGeoDB:loc_id": "13902",
    "openGeoDB:postal_codes": "76532,76530,76534",
    "openGeoDB:telephone_area_code": "07221",
    "place": "town",
    "population": "54454",
    "ref:whc": "1613-008",
    "whc:criteria": "(ii)(iii)",
    "whc:inscription_date": "2021",
    "wikidata": "Q4100",
    "wikipedia": "de:Baden-Baden"
  }
},
{
  "type": "node",
  "id": 240099987,
  "lat": 48.4285397,
  "lon": 8.3285852,
  "tags": {
    "name": "Bad Rippoldsau",
    "place": "village",
    "population": "2352",
    "wikidata": "Q47501711"
  }
},
{
  "type": "node",
  "id": 240100247,
  "lat": 48.4004384,
  "lon": 8.0836530,
  "tags": {
    "name": "Nordrach",
    "openGeoDB:auto_update": "population,place,name,is_in",
    "openGeoDB:combination_of_public_administration": "Verwaltungsgemeinschaft Zell am Harmersbach",
    "openGeoDB:community_identification_number": "08317085",
    "openGeoDB:is_in": "Ortenaukreis,Freiburg,Baden-Württemberg,Bundesrepublik Deutschland,Europe",
    "openGeoDB:is_in_loc_id": "553",
    "openGeoDB:layer": "6",
    "openGeoDB:license_plate_code": "OG",
    "openGeoDB:loc_id": "21802",
    "openGeoDB:location": "political_structure",
    "openGeoDB:name": "Nordrach",
    "openGeoDB:population": "2039",
    "openGeoDB:postal_codes": "77787",
    "openGeoDB:sort_name": "NORDRACH",
    "openGeoDB:telephone_area_code": "07838",
    "openGeoDB:type": "Gemeinde",
    "openGeoDB:version": "0.2.6.11 / 2007-12-04 / http://fa-technik.adfc.de/code/opengeodb/dump/",
    "place": "village",
    "population": "2039",
    "wikidata": "Q533652",
    "wikipedia": "de:Nordrach"
  }
},
{
  "type": "node",
  "id": 240101743,
  "lat": 49.0809754,
  "lon": 8.1970699,
  "tags": {
    "de:amtlicher_gemeindeschluessel": "07334013",
    "name": "Kandel",
    "place": "town",
    "population": "8351",
    "wikidata": "Q22957",
    "wikipedia": "de:Kandel (Pfalz)"
  }
},
{
  "type": "node",
  "id": 240102773,
  "lat": 48.2487016,
  "lon": 8.2116631,
  "tags": {
    "alt_name": "Gutach",
    "name": "Gutach (Schwarzwaldbahn)",
    "name:prefix": "Gemeinde",
    "place": "village",
    "population": "2221",
    "wikidata": "Q557834",
    "wikipedia": "de:Gutach (Schwarzwaldbahn)"
  }
},
{
  "type": "node",
  "id": 240102896,
  "lat": 48.5308586,
  "lon": 8.0786570,
  "tags": {
    "ele": "192",
    "name": "Oberkirch",
    "name:prefix": "Große Kreisstadt",
    "name:uk": "Оберкірх",
    "place": "town",
    "population": "19665",
    "postal_code": "77704",
    "wikidata": "Q541381",
    "wikipedia": "de:Oberkirch (Baden)"
  }
},
{
  "type": "node",
  "id": 240105830,
  "lat": 48.0631520,
  "lon": 8.4929618,
  "tags": {
    "ele": "699",
    "name": "Villingen-Schwenningen",
    "name:ru": "Филлинген-Швеннинген",
    "name:uk": "Філлінґен-Швеннінґен",
    "note:ele": "Mittelwert aus beiden Messwerten Bahnhof Villingen (704) und Bahnhof Schwenningen (694).",
    "place": "town",
    "population": "81128",
    "postal_code": "78050;78048;78052;78054;78056",
    "website": "https://www.villingen-schwenningen.de/",
    "wikidata": "Q3865",
    "wikipedia": "de:Villingen-Schwenningen"
  }
},
{
  "type": "node",
  "id": 240109135,
  "lat": 48.4130545,
  "lon": 8.4515659,
  "tags": {
    "name": "Loßburg",
    "openGeoDB:auto_update": "population,place,name,is_in",
    "openGeoDB:combination_of_public_administration": "Verwaltungsgemeinschaft Loßburg",
    "openGeoDB:community_identification_number": "08237045",
    "openGeoDB:is_in": "Freudenstadt,Karlsruhe,Baden-Württemberg,Bundesrepublik Deutschland,Europe",
    "openGeoDB:is_in_loc_id": "581",
    "openGeoDB:layer": "6",
    "openGeoDB:license_plate_code": "FDS",
    "openGeoDB:loc_id": "20402",
    "openGeoDB:location": "political_structure",
    "openGeoDB:name": "Loßburg",
    "openGeoDB:population": "6513",
    "openGeoDB:postal_codes": "72290",
    "openGeoDB:sort_name": "LOSSBURG",
    "openGeoDB:telephone_area_code": "07446",
    "openGeoDB:type": "Gemeinde",
    "openGeoDB:version": "0.2.6.11 / 2007-12-04 / http://fa-technik.adfc.de/code/opengeodb/dump/",
    "place": "village",
    "population": "6513",
    "postal_code": "72290",
    "wikidata": "Q81682",
    "wikipedia": "de:Loßburg"
  }
},
{
  "type": "node",
  "id": 240110485,
  "lat": 47.9170780,
  "lon": 8.2571947,
  "tags": {
    "name": "Friedenweiler",
    "name:ru": "Фриденвайлер",
    "place": "village",
    "population": "2058",
    "wikidata": "Q519987",
    "wikipedia": "de:Friedenweiler"
  }
},
{
  "type": "node",
  "id": 240114360,
  "lat": 48.8792567,
  "lon": 8.3357173,
  "tags": {
    "name": "Malsch",
    "name:prefix": "Gemeinde",
    "place": "town",
    "population": "14483",
    "wikidata": "Q545164"
  }
},
{
  "type": "node",
  "id": 240114391,
  "lat": 48.9292997,
  "lon": 8.4719091,
  "tags": {
    "name": "Waldbronn",
    "place": "town",
    "population": "12284",
    "wikidata": "Q542533",
    "wikipedia": "de:Waldbronn"
  }
},
{
  "type": "node",
  "id": 240116226,
  "lat": 47.9300645,
  "lon": 8.4483290,
  "tags": {
    "name": "Bräunlingen",
    "name:prefix": "Stadt",
    "name:ru": "Бройнлинген",
    "place": "town",
    "population": "6200",
    "postal_code": "78199"
  }
},
{
  "type": "node",
  "id": 240119097,
  "lat": 47.9269484,
  "lon": 8.4892187,
  "tags": {
    "int_name": "Huefingen",
    "name": "Hüfingen",
    "name:ru": "Хюфинген",
    "old_name": "Brigobanne",
    "openGeoDB:auto_update": "population,place,name,is_in",
    "openGeoDB:combination_of_public_administration": "Verwaltungsgemeinschaft Donaueschingen",
    "openGeoDB:community_identification_number": "08326027",
    "openGeoDB:is_in": "Schwarzwald-Baar-Kreis,Freiburg,Baden-Württemberg,Bundesrepublik Deutschland,Europe",
    "openGeoDB:is_in_loc_id": "561",
    "openGeoDB:layer": "6",
    "openGeoDB:license_plate_code": "VS",
    "openGeoDB:loc_id": "18708",
    "openGeoDB:location": "political_structure",
    "openGeoDB:name": "Hüfingen",
    "openGeoDB:population": "7792",
    "openGeoDB:postal_codes": "78183",
    "openGeoDB:sort_name": "HUEFINGEN",
    "openGeoDB:telephone_area_code": "0771",
    "openGeoDB:type": "Stadt",
    "openGeoDB:version": "0.2.6.11 / 2007-12-04 / http://fa-technik.adfc.de/code/opengeodb/dump/",
    "place": "town",
    "population": "7792",
    "wikidata": "Q83132"
  }
},
{
  "type": "node",
  "id": 240119819,
  "lat": 47.9063718,
  "lon": 8.1036220,
  "tags": {
    "name": "Hinterzarten",
    "name:ru": "Хинтерцартен",
    "openGeoDB:auto_update": "population,place,name,is_in",
    "openGeoDB:combination_of_public_administration": "Verwaltungsgemeinschaft Hinterzarten",
    "openGeoDB:community_identification_number": "08315052",
    "openGeoDB:is_in": "Breisgau-Hochschwarzwald,Freiburg,Baden-Württemberg,Bundesrepublik Deutschland,Europe",
    "openGeoDB:is_in_loc_id": "331",
    "openGeoDB:layer": "6",
    "openGeoDB:license_plate_code": "FR",
    "openGeoDB:loc_id": "18369",
    "openGeoDB:location": "political_structure",
    "openGeoDB:name": "Hinterzarten",
    "openGeoDB:population": "2612",
    "openGeoDB:postal_codes": "79856",
    "openGeoDB:sort_name": "HINTERZARTEN",
    "openGeoDB:telephone_area_code": "07652",
    "openGeoDB:type": "Gemeinde",
    "openGeoDB:version": "0.2.6.11 / 2007-12-04 / http://fa-technik.adfc.de/code/opengeodb/dump/",
    "place": "village",
    "population": "2612",
    "wikidata": "Q515356",
    "wikipedia": "de:Hinterzarten"
  }
},
{
  "type": "node",
  "id": 240119944,
  "lat": 48.5762423,
  "lon": 8.1711181,
  "tags": {
    "name": "Seebach",
    "place": "village",
    "population": "1541",
    "wikidata": "Q550793",
    "wikipedia": "de:Seebach (Baden)"
  }
},
{
  "type": "node",
  "id": 240120188,
  "lat": 48.6945066,
  "lon": 8.1344230,
  "tags": {
    "ele": "138",
    "name": "Bühl",
    "name:als": "Bihl",
    "name:ar": "بيول",
    "name:fa": "بول",
    "name:ru": "Бюль",
    "name:sr": "Бил",
    "name:uk": "Бюль",
    "openGeoDB:combination_of_public_administration": "Verwaltungsgemeinschaft Bühl",
    "openGeoDB:community_identification_number": "08216007",
    "openGeoDB:is_in_loc_id": "364",
    "openGeoDB:layer": "6",
    "openGeoDB:license_plate_code": "RA",
    "openGeoDB:loc_id": "15118",
    "openGeoDB:telephone_area_code": "07223",
    "place": "town",
    "population": "28566",
    "postal_code": "77815",
    "wikidata": "Q505534",
    "wikipedia": "de:Bühl (Baden)"
  }
},
{
  "type": "node",
  "id": 240120523,
  "lat": 48.2280951,
  "lon": 8.3430194,
  "tags": {
    "name": "Lauterbach",
    "openGeoDB:auto_update": "population,place,name,is_in",
    "openGeoDB:combination_of_public_administration": "Verwaltungsgemeinschaft Schramberg",
    "openGeoDB:community_identification_number": "08325036",
    "openGeoDB:is_in": "Rottweil,Freiburg,Baden-Württemberg,Bundesrepublik Deutschland,Europe",
    "openGeoDB:is_in_loc_id": "558",
    "openGeoDB:layer": "6",
    "openGeoDB:license_plate_code": "RW",
    "openGeoDB:loc_id": "20036",
    "openGeoDB:location": "political_structure",
    "openGeoDB:name": "Lauterbach (Schwarzwald)",
    "openGeoDB:population": "3158",
    "openGeoDB:postal_codes": "78730",
    "openGeoDB:sort_name": "LAUTERBACH",
    "openGeoDB:telephone_area_code": "07422",
    "openGeoDB:type": "Gemeinde",
    "openGeoDB:version": "0.2.6.11 / 2007-12-04 / http://fa-technik.adfc.de/code/opengeodb/dump/",
    "place": "village",
    "population": "3158",
    "wikidata": "Q81488",
    "wikipedia": "de:Lauterbach (Schwarzwald)"
  }
},
{
  "type": "node",
  "id": 240120582,
  "lat": 49.0068705,
  "lon": 8.4034195,
  "tags": {
    "alt_name:ur": "کارلسروئے",
    "capital": "5",
    "de:amtlicher_gemeindeschluessel": "08212000",
    "ele": "114",
    "name": "Karlsruhe",
    "name:als": "Karlsrueh",
    "name:ar": "كارلسروه",
    "name:az": "Karlsruye",
    "name:bg": "Карлсруе",
    "name:cv": "Карлсруэ",
    "name:el": "Καρλσρούη",
    "name:fa": "کارلسروهه",
    "name:fr": "Carlsruhe",
    "name:he": "קארלסרוהה",
    "name:ja": "カールスルーエ",
    "name:ka": "კარლსრუე",
    "name:ko": "카를스루에",
    "name:la": "Carolsruha",
    "name:lv": "Karlsrūe",
    "name:mk": "Карлсруе",
    "name:ml": "കാൾസ്റൂഹെ",
    "name:pfl": "Kallsruh",
    "name:ru": "Карлсруэ",
    "name:sr": "Карлсруе",
    "name:uk": "Карлсруе",
    "name:ur": "کالسروئے",
    "name:zh": "卡尔斯鲁厄",
    "name:zh-Hant": "卡爾斯魯厄",
    "place": "city",
    "population": "283959",
    "ref:LOCODE": "DEKAE",
    "wikidata": "Q1040"
  }
},
{
  "type": "node",
  "id": 240121451,
  "lat": 49.0615214,
  "lon": 8.0460864,
  "tags": {
    "name": "Niederotterbach",
    "place": "village",
    "population": "322",
    "wikidata": "Q563028",
    "wikipedia": "de:Niederotterbach"
  }
},
{
  "type": "node",
  "id": 240123602,
  "lat": 48.3388818,
  "lon": 8.0281354,
  "tags": {
    "name": "Biberach (Baden)",
    "openGeoDB:auto_update": "population,place,is_in",
    "openGeoDB:combination_of_public_administration": "Verwaltungsgemeinschaft Zell am Harmersbach",
    "openGeoDB:community_identification_number": "08317011",
    "openGeoDB:is_in": "Ortenaukreis,Freiburg,Baden-Württemberg,Bundesrepublik Deutschland,Europe",
    "openGeoDB:is_in_loc_id": "553",
    "openGeoDB:layer": "6",
    "openGeoDB:license_plate_code": "OG",
    "openGeoDB:loc_id": "14448",
    "openGeoDB:location": "political_structure",
    "openGeoDB:name": "Biberach (Baden)",
    "openGeoDB:population": "3275",
    "openGeoDB:postal_codes": "77781",
    "openGeoDB:sort_name": "BIBERACH",
    "openGeoDB:telephone_area_code": "07835",
    "openGeoDB:type": "Gemeinde",
    "openGeoDB:version": "0.2.6.11 / 2007-12-04 / http://fa-technik.adfc.de/code/opengeodb/dump/",
    "place": "village",
    "population": "3275",
    "wikidata": "Q550693",
    "wikipedia": "de:Biberach (Baden)"
  }
},
{
  "type": "node",
  "id": 240127432,
  "lat": 48.2679292,
  "lon": 8.3995620,
  "tags": {
    "name": "Aichhalden",
    "name:prefix": "Gemeinde",
    "place": "village",
    "population": "4158",
    "wikidata": "Q83302",
    "wikipedia": "de:Aichhalden"
  }
},
{
  "type": "node",
  "id": 240127511,
  "lat": 48.5658379,
  "lon": 8.1521367,
  "tags": {
    "name": "Ottenhöfen",
    "name:prefix": "Gemeinde",
    "official_name": "Ottenhöfen im Schwarzwald",
    "place": "village",
    "population": "3322"
  }
},
{
  "type": "node",
  "id": 240128295,
  "lat": 48.5873988,
  "lon": 8.0143673,
  "tags": {
    "name": "Renchen",
    "openGeoDB:auto_update": "population,place,name,is_in",
    "openGeoDB:combination_of_public_administration": "Verwaltungsgemeinschaft Oberkirch",
    "openGeoDB:community_identification_number": "08317110",
    "openGeoDB:is_in": "Ortenaukreis,Freiburg,Baden-Württemberg,Bundesrepublik Deutschland,Europe",
    "openGeoDB:is_in_loc_id": "553",
    "openGeoDB:license_plate_code": "OG",
    "openGeoDB:loc_id": "22994",
    "openGeoDB:location": "political_structure",
    "openGeoDB:name": "Renchen",
    "openGeoDB:population": "7298",
    "openGeoDB:postal_codes": "77871",
    "openGeoDB:sort_name": "RENCHEN",
    "openGeoDB:telephone_area_code": "07843",
    "openGeoDB:type": "Stadt",
    "openGeoDB:version": "0.2.6.11%20/%202007-12-04%20/%20http://fa-technik.adfc.de/code/opengeodb/dump/",
    "place": "town",
    "population": "7298",
    "wikidata": "Q534613",
    "wikipedia": "de:Renchen"
  }
},
{
  "type": "node",
  "id": 240128696,
  "lat": 48.3727696,
  "lon": 8.1267832,
  "tags": {
    "name": "Oberharmersbach",
    "place": "village",
    "population": "2566",
    "wikidata": "Q112559",
    "wikipedia": "de:Oberharmersbach"
  }
},
{
  "type": "node",
  "id": 240130368,
  "lat": 48.0993425,
  "lon": 8.4267610,
  "tags": {
    "name": "Mönchweiler",
    "name:ru": "Менхвайлер",
    "openGeoDB:auto_update": "population,place,name,is_in",
    "openGeoDB:combination_of_public_administration": "Verwaltungsgemeinschaft Villingen-Schwenningen",
    "openGeoDB:community_identification_number": "08326037",
    "openGeoDB:is_in": "Schwarzwald-Baar-Kreis,Freiburg,Baden-Württemberg,Bundesrepublik Deutschland,Europe",
    "openGeoDB:is_in_loc_id": "561",
    "openGeoDB:layer": "6",
    "openGeoDB:license_plate_code": "VS",
    "openGeoDB:loc_id": "21022",
    "openGeoDB:location": "political_structure",
    "openGeoDB:name": "Mönchweiler",
    "openGeoDB:population": "3190",
    "openGeoDB:postal_codes": "78087",
    "openGeoDB:sort_name": "MOENCHWEILER",
    "openGeoDB:telephone_area_code": "07721",
    "openGeoDB:type": "Gemeinde",
    "openGeoDB:version": "0.2.6.11 / 2007-12-04 / http://fa-technik.adfc.de/code/opengeodb/dump/",
    "place": "village",
    "population": "3190",
    "wikidata": "Q83217",
    "wikipedia": "de:Mönchweiler"
  }
},
{
  "type": "node",
  "id": 246035791,
  "lat": 48.4720808,
  "lon": 8.3106312,
  "tags": {
    "name": "Kniebis",
    "place": "village",
    "wikidata": "Q25713875"
  }
},
{
  "type": "node",
  "id": 247894296,
  "lat": 48.4510018,
  "lon": 8.4705529,
  "tags": {
    "name": "Dietersweiler",
    "place": "village",
    "postal_code": "72250"
  }
},
{
  "type": "node",
  "id": 248049509,
  "lat": 48.4796222,
  "lon": 8.4683264,
  "tags": {
    "name": "Grüntal",
    "place": "village",
    "postal_code": "72250",
    "wikipedia": "de:Grüntal (Freudenstadt)"
  }
},
{
  "type": "node",
  "id": 248050298,
  "lat": 48.5060137,
  "lon": 8.4682042,
  "tags": {
    "name": "Obermusbach",
    "place": "village",
    "postal_code": "72250",
    "website": "https://obermusbach.de/"
  }
},
{
  "type": "node",
  "id": 248050317,
  "lat": 48.4993988,
  "lon": 8.4694777,
  "tags": {
    "name": "Untermusbach",
    "place": "village",
    "postal_code": "72250"
  }
},
{
  "type": "node",
  "id": 248051563,
  "lat": 48.5843344,
  "lon": 8.4397051,
  "tags": {
    "name": "Schorrental",
    "place": "hamlet"
  }
},
{
  "type": "node",
  "id": 248056859,
  "lat": 48.5874958,
  "lon": 8.5079519,
  "tags": {
    "name": "Hochdorf",
    "place": "hamlet",
    "postal_code": "72297",
    "wikipedia": "de:Hochdorf (Seewald)"
  }
},
{
  "type": "node",
  "id": 248701258,
  "lat": 48.8534960,
  "lon": 8.5151819,
  "tags": {
    "name": "Pfinzweiler",
    "place": "village"
  }
},
{
  "type": "node",
  "id": 248880762,
  "lat": 48.5264495,
  "lon": 8.3639054,
  "tags": {
    "name": "Tonbach",
    "place": "village",
    "wikidata": "Q112195003",
    "wikipedia": "de:Tonbach (Baiersbronn)"
  }
},
{
  "type": "node",
  "id": 249060587,
  "lat": 48.3813296,
  "lon": 8.0378500,
  "tags": {
    "name": "Bergach",
    "place": "hamlet"
  }
},
{
  "type": "node",
  "id": 249332771,
  "lat": 48.7127724,
  "lon": 8.0936456,
  "tags": {
    "name": "Balzhofen",
    "place": "village"
  }
},
{
  "type": "node",
  "id": 249875814,
  "lat": 48.8615013,
  "lon": 8.3328440,
  "tags": {
    "name": "Waldprechtsweier",
    "place": "village"
  }
},
{
  "type": "node",
  "id": 250048118,
  "lat": 48.1912225,
  "lon": 8.5330392,
  "tags": {
    "name": "Lackendorf",
    "place": "village",
    "postal_code": "78655",
    "wikidata": "Q15824996",
    "wikipedia": "de:Lackendorf (Dunningen)"
  }
},