{
	"version": 0.6,
	"generator": "Overpass API 0.7.62.8 e802775f",
	"osm3s": {
		"timestamp_osm_base": "2025-09-05T06:14:16Z",
		"copyright": "The data included in this document is from www.openstreetmap.org. The data is made available under ODbL."
	},
	"elements": [

		{
			"type": "node",
			"id": 590298,
			"lat": 48.8102993,
			"lon": 9.1823868,
			"tags": {
				"ele": "305",
				"ele:source": "http://www.stadtklima-stuttgart.de/index.php?id=510,0,0,1,0,0",
				"mountain_pass": "yes",
				"name": "Pragsattel"
			}
		},
		{
			"type": "node",
			"id": 2104418,
			"lat": 47.9115203,
			"lon": 8.1108414,
			"tags": {
				"ele": "910",
				"mountain_pass": "yes",
				"name": "Wasserscheide Dreisam/Gutach"
			}
		},
		{
			"type": "node",
			"id": 14390072,
			"lat": 47.6726326,
			"lon": 11.8867038,
			"tags": {
				"ele": "1130",
				"mountain_pass": "yes",
				"name": "Spitzingsattel",
				"natural": "saddle",
				"wikidata": "Q2311626",
				"wikipedia": "de:Spitzingsattel"
			}
		},
		{
			"type": "node",
			"id": 21650348,
			"lat": 47.6318095,
			"lon": 12.7279060,
			"tags": {
				"ele": "554",
				"mountain_pass": "yes",
				"name": "Kniepass",
				"natural": "saddle"
			}
		},
		{
			"type": "node",
			"id": 25456364,
			"lat": 47.5617771,
			"lon": 11.1011288,
			"tags": {
				"check_date": "2024-03-24",
				"direction": "SE",
				"ele": "876",
				"mountain_pass": "yes",
				"name": "Ettaler Sattel",
				"natural": "saddle"
			}
		},
		{
			"type": "node",
			"id": 26633010,
			"lat": 48.8504356,
			"lon": 9.3774238,
			"tags": {
				"ele": "364",
				"mountain_pass": "yes",
				"name": "Hanweiler Sattel",
				"natural": "saddle"
			}
		},
		{
			"type": "node",
			"id": 27192970,
			"lat": 47.7718239,
			"lon": 8.0196587,
			"tags": {
				"ele": "1090",
				"mountain_pass": "yes",
				"name": "Rotes Kreuz",
				"natural": "saddle"
			}
		},
		{
			"type": "node",
			"id": 28791742,
			"lat": 49.0247404,
			"lon": 7.8859398,
			"tags": {
				"ele": "432",
				"mountain_pass": "yes",
				"name": "Col du Pigeonnier",
				"natural": "saddle",
				"place": "locality",
				"wikidata": "Q2982303",
				"wikipedia": "fr:Col du Pigeonnier"
			}
		},
		{
			"type": "node",
			"id": 29757549,
			"lat": 47.3728550,
			"lon": 7.1413531,
			"tags": {
				"ele": "789",
				"mountain_pass": "yes",
				"name": "Col de la Croix",
				"natural": "saddle",
				"wikidata": "Q390993",
				"wikipedia": "fr:Col de la Croix (Jura)"
			}
		},
		{
			"type": "node",
			"id": 29835796,
			"lat": 47.5283586,
			"lon": 8.1592329,
			"tags": {
				"ele": "550",
				"mountain_pass": "yes",
				"name": "Bürersteig Passhöhe",
				"natural": "saddle"
			}
		},
		{
			"type": "node",
			"id": 29974104,
			"lat": 47.5181123,
			"lon": 8.1239001,
			"tags": {
				"ele": "579",
				"mountain_pass": "yes",
				"name": "Ampferehöchi",
				"natural": "saddle",
				"source": "Club des Cent Cols"
			}
		},
		{
			"type": "node",
			"id": 31317947,
			"lat": 47.5434719,
			"lon": 8.1790275,
			"tags": {
				"ele": "550",
				"mountain_pass": "yes",
				"name": "Grünegg Passhöhe",
				"natural": "saddle"
			}
		},
		{
			"type": "node",
			"id": 33119485,
			"lat": 47.3111319,
			"lon": 12.2189010,
			"tags": {
				"ele": "1686",
				"mountain_pass": "yes",
				"name": "Filzenscharte",
				"natural": "saddle"
			}
		},
		{
			"type": "node",
			"id": 34094737,
			"lat": 47.2639846,
			"lon": 8.7129321,
			"tags": {
				"ele": "615",
				"mountain_pass": "yes",
				"name": "Türli",
				"natural": "saddle"
			}
		},
		{
			"type": "node",
			"id": 35240975,
			"lat": 47.5860973,
			"lon": 9.8704421,
			"tags": {
				"mountain_pass": "yes"
			}
		},
		{
			"type": "node",
			"id": 36758943,
			"lat": 47.6045893,
			"lon": 11.6359109,
			"tags": {
				"ele": "941",
				"mountain_pass": "yes",
				"name": "Achenpass",
				"natural": "saddle",
				"wikidata": "Q314878",
				"wikipedia": "de:Achenpass"
			}
		},
		{
			"type": "node",
			"id": 38324920,
			"lat": 48.2267741,
			"lon": 7.2313942,
			"tags": {
				"mountain_pass": "yes",
				"name": "Col Haut de Ribeauvillé",
				"natural": "saddle"
			}
		},
		{
			"type": "node",
			"id": 38425358,
			"lat": 48.2439656,
			"lon": 7.3266114,
			"tags": {
				"ele": "584",
				"mountain_pass": "yes",
				"name": "Col du Schaentzel",
				"natural": "saddle"
			}
		},
		{
			"type": "node",
			"id": 39849530,
			"lat": 50.2450600,
			"lon": 8.4884498,
			"tags": {
				"ele": "669",
				"mountain_pass": "yes",
				"name": "Sandplacken",
				"natural": "saddle",
				"place": "isolated_dwelling",
				"wikipedia": "de:Sandplacken#Sandplacken"
			}
		},
		{
			"type": "node",
			"id": 48903742,
			"lat": 50.2256021,
			"lon": 8.4364866,
			"tags": {
				"junction": "yes",
				"mountain_pass": "yes",
				"name": "Rotes Kreuz",
				"wikipedia": "de:Rotes Kreuz (Taunus)"
			}
		},
		{
			"type": "node",
			"id": 56562064,
			"lat": 48.7483348,
			"lon": 9.8716203,
			"tags": {
				"ele": "630",
				"mountain_pass": "yes",
				"name": "Furtlepass",
				"natural": "saddle",
				"wikidata": "Q1475172",
				"wikipedia": "de:Furtlepass"
			}
		},
		{
			"type": "node",
			"id": 66556565,
			"lat": 47.4888660,
			"lon": 10.5958471,
			"tags": {
				"ele": "1053",
				"mountain_pass": "yes"
			}
		},
		{
			"type": "node",
			"id": 69494704,
			"lat": 47.5732025,
			"lon": 9.8461736,
			"tags": {
				"ele": "827",
				"mountain_pass": "yes"
			}
		},
		{
			"type": "node",
			"id": 82602102,
			"lat": 47.9165979,
			"lon": 8.0237438,
			"tags": {
				"mountain_pass": "yes",
				"name": "Hinterwaldkopfsattel",
				"natural": "saddle"
			}
		},
		{
			"type": "node",
			"id": 88917938,
			"lat": 47.4821766,
			"lon": 8.4363775,
			"tags": {
				"fixme": "Duplicate place - Regensberger Pass is also mapped in the clearcut near Boppelserstrasse 111",
				"mountain_pass": "yes",
				"name": "Regensberger Pass"
			}
		},
		{
			"type": "node",
			"id": 91313900,
			"lat": 47.0742812,
			"lon": 12.6945093,
			"tags": {
				"ele": "3756",
				"mountain_pass": "yes",
				"name": "Obere Glocknerscharte",
				"natural": "saddle",
				"note": "in älteren Ausgaben von W.End stand 3766m (mit 3783 für den Kleinglockner, wurde 2010 korrigiert)",
				"source:ele": "Willi End (Rother), 11. Auflage 2010 https://web.archive.org/web/20210830234748/http://www.rother.de/pdf/_3763312668_joker.pdf",
				"wikidata": "Q9268771"
			}
		},
		{
			"type": "node",
			"id": 94587033,
			"lat": 47.4666111,
			"lon": 11.3478169,
			"tags": {
				"ele": "1406",
				"mountain_pass": "yes",
				"natural": "saddle"
			}
		},
		{
			"type": "node",
			"id": 97026497,
			"lat": 48.5072486,
			"lon": 7.1462285,
			"tags": {
				"ele": "727",
				"mountain_pass": "yes",
				"name": "Col du Donon",
				"natural": "saddle",
				"wikidata": "Q2982262",
				"wikipedia": "fr:Col du Donon"
			}
		},
		{
			"type": "node",
			"id": 98016458,
			"lat": 48.3834854,
			"lon": 7.2574328,
			"tags": {
				"ele": "961",
				"mountain_pass": "yes",
				"name": "Col de la Charbonnière",
				"natural": "saddle",
				"wikidata": "Q2982153",
				"wikipedia": "fr:Col de la Charbonnière"
			}
		},
		{
			"type": "node",
			"id": 98164287,
			"lat": 48.4419661,
			"lon": 7.3263690,
			"tags": {
				"mountain_pass": "yes",
				"natural": "saddle"
			}
		},
		{
			"type": "node",
			"id": 105987271,
			"lat": 48.3636753,
			"lon": 7.2001495,
			"tags": {
				"ele": "534",
				"mountain_pass": "yes",
				"name": "Col de Steige",
				"name:uk": "Стеге",
				"natural": "saddle",
				"wikidata": "Q22491",
				"wikipedia": "de:Steige (Bas-Rhin)"
			}
		},
		{
			"type": "node",
			"id": 112194666,
			"lat": 50.2059206,
			"lon": 8.4341913,
			"tags": {
				"TMC:cid_58:tabcd_1:Class": "Point",
				"TMC:cid_58:tabcd_1:Direction": "both",
				"TMC:cid_58:tabcd_1:LCLversion": "9.00",
				"TMC:cid_58:tabcd_1:LocationCode": "37315",
				"TMC:cid_58:tabcd_1:NextLocationCode": "37131",
				"TMC:cid_58:tabcd_1:PrevLocationCode": "25227",
				"alt_name": "Eselseck",
				"mountain_pass": "yes",
				"name": "Eselsheck",
				"wikipedia": "de:Pässe im Taunus#Eselseck"
			}
		},
		{
			"type": "node",
			"id": 117587103,
			"lat": 48.7142435,
			"lon": 8.4248967,
			"tags": {
				"ele": "933",
				"mountain_pass": "yes",
				"name": "Schwarzmiss",
				"natural": "saddle"
			}
		},
		{
			"type": "node",
			"id": 147951154,
			"lat": 47.4347671,
			"lon": 10.1730295,
			"tags": {
				"ele": "1380",
				"mountain_pass": "yes",
				"name": "Riedbergpass (Wasserscheide)",
				"natural": "saddle"
			}
		},
		{
			"type": "node",
			"id": 147951297,
			"lat": 47.4371323,
			"lon": 10.1770391,
			"tags": {
				"ele": "1407",
				"mountain_pass": "yes",
				"name": "Riedbergpass",
				"natural": "saddle",
				"wikidata": "Q1242141",
				"wikipedia": "de:Riedbergpass"
			}
		},
		{
			"type": "node",
			"id": 171814339,
			"lat": 48.7468858,
			"lon": 8.3017172,
			"tags": {
				"ele": "382",
				"mountain_pass": "yes",
				"name": "Nachtigall",
				"natural": "saddle"
			}
		},
		{
			"type": "node",
			"id": 185624619,
			"lat": 50.4051921,
			"lon": 12.4863239,
			"tags": {
				"ele": "860",
				"ele:source": "sign",
				"mountain_pass": "yes",
				"name": "Passhöhe Mühlleithen"
			}
		},
		{
			"type": "node",
			"id": 187315714,
			"lat": 48.3269327,
			"lon": 7.9814958,
			"tags": {
				"TMC:cid_58:tabcd_1:Class": "Point",
				"TMC:cid_58:tabcd_1:LCLversion": "9.00",
				"TMC:cid_58:tabcd_1:LocationCode": "30833",
				"TMC:cid_58:tabcd_1:NextLocationCode": "30834",
				"TMC:cid_58:tabcd_1:PrevLocationCode": "30832",
				"ele": "367",
				"expected_lwn_route_relations": "3",
				"lwn_name": "Schönberg Ludwigsäule",
				"mountain_pass": "yes",
				"name": "Schönberg",
				"natural": "saddle",
				"network:type": "node_network"
			}
		},
		{
			"type": "node",
			"id": 204933637,
			"lat": 47.6164600,
			"lon": 12.0216625,
			"tags": {
				"ele": "836",
				"mountain_pass": "yes",
				"name": "Ursprungpass",
				"natural": "saddle",
				"source:position": "barometer_calibrated_gps",
				"wikidata": "Q872279",
				"wikipedia": "de:Ursprungpass"
			}
		},
		{
			"type": "node",
			"id": 224719553,
			"lat": 50.3856703,
			"lon": 9.7737371,
			"tags": {
				"description": "Wasserscheide | Rhein / Weser",
				"ele": "498",
				"mountain_pass": "yes",
				"name": "Mottener Höhe"
			}
		},
		{
			"type": "node",
			"id": 243076765,
			"lat": 47.2760070,
			"lon": 8.5211431,
			"tags": {
				"ele": "790",
				"mountain_pass": "yes",
				"name": "Albispass",
				"wikipedia": "de:Albispass"
			}
		},
		{
			"type": "node",
			"id": 246541293,
			"lat": 47.3114046,
			"lon": 10.4289447,
			"tags": {
				"ele": "2226",
				"mountain_pass": "yes",
				"name": "Balschtesattel",
				"natural": "saddle",
				"ref:avf": "461",
				"wikidata": "Q130563192"
			}
		},
		{
			"type": "node",
			"id": 246541325,
			"lat": 47.3163786,
			"lon": 10.4495780,
			"tags": {
				"ele": "2114",
				"mountain_pass": "yes",
				"name": "Luxnacher Sattel",
				"wikidata": "Q130564851"
			}
		},
		{
			"type": "node",
			"id": 246552021,
			"lat": 47.3074762,
			"lon": 10.3768140,
			"tags": {
				"ele": "2310",
				"mountain_pass": "yes",
				"name": "Schafschartl",
				"ref:avf": "463",
				"wikidata": "Q130557992"
			}
		},
		{
			"type": "node",
			"id": 246552330,
			"lat": 47.3072474,
			"lon": 10.3571779,
			"tags": {
				"ele": "2350",
				"mountain_pass": "yes",
				"name": "Krottenkopfscharte",
				"natural": "saddle",
				"ref:avf": "1579",
				"wikidata": "Q124369491"
			}
		},
		{
			"type": "node",
			"id": 246552627,
			"lat": 47.2922340,
			"lon": 10.3586573,
			"tags": {
				"ele": "2262",
				"mountain_pass": "yes",
				"name": "Gumpensattel",
				"natural": "saddle",
				"ref:avf": "1601",
				"wikidata": "Q130554699"
			}
		},
		{
			"type": "node",
			"id": 246769404,
			"lat": 47.3574422,
			"lon": 10.3567613,
			"tags": {
				"alt_name": "Älpelesattel",
				"ele": "1780",
				"mountain_pass": "yes",
				"name": "Alpelsattel",
				"natural": "saddle",
				"ref:dadlo": "391.2",
				"wikidata": "Q254810",
				"wikipedia": "de:Alpelsattel"
			}
		},
		{
			"type": "node",
			"id": 247196613,
			"lat": 48.3046925,
			"lon": 7.2602256,
			"tags": {
				"ele": "608",
				"mountain_pass": "yes",
				"name": "Col de Fouchy",
				"natural": "saddle"
			}
		},
		{
			"type": "node",
			"id": 247197663,
			"lat": 48.1363542,
			"lon": 7.0612655,
			"tags": {
				"ele": "978",
				"mountain_pass": "yes",
				"name": "Col du Louchpach",
				"name:de": "Luschbach-Pass",
				"natural": "saddle"
			}
		},
		{
			"type": "node",
			"id": 250440560,
			"lat": 48.6110755,
			"lon": 8.1126704,
			"tags": {
				"mountain_pass": "yes",
				"name": "Knetschwasen",
				"natural": "saddle"
			}
		},
		{
			"type": "node",
			"id": 252335821,
			"lat": 47.1994309,
			"lon": 11.7158942,
			"tags": {
				"ele": "2292",
				"mountain_pass": "yes",
				"name": "Geiseljoch",
				"natural": "saddle",
				"wikidata": "Q15811524",
				"wikipedia": "de:Geiseljoch"
			}
		},
		{
			"type": "node",
			"id": 252336259,
			"lat": 47.2993181,
			"lon": 11.7652440,
			"tags": {
				"ele": "1675",
				"mountain_pass": "yes",
				"name": "Loassattel",
				"natural": "saddle"
			}
		},
		{
			"type": "node",
			"id": 253179056,
			"lat": 47.4281749,
			"lon": 11.4313516,
			"tags": {
				"direction": "W-E",
				"ele": "1803",
				"mountain_pass": "yes",
				"name": "Hochalmsattel",
				"natural": "saddle",
				"tourism": "viewpoint",
				"wikidata": "Q21871758",
				"wikipedia": "de:Hochalmsattel"
			}
		},
		{
			"type": "node",
			"id": 253805511,
			"lat": 49.3015076,
			"lon": 8.0344428,
			"tags": {
				"ele": "574",
				"mountain_pass": "yes",
				"name": "Lolosruhe",
				"wikidata": "Q1331460",
				"wikipedia": "de:Lolosruhe"
			}
		},
		{
			"type": "node",
			"id": 254141528,
			"lat": 47.2138031,
			"lon": 11.0243734,
			"tags": {
				"ele": "2017",
				"mountain_pass": "yes",
				"name": "Kühtaisattel",
				"natural": "saddle",
				"wikidata": "Q877772",
				"wikimedia_commons": "Category:Kühtaisattel",
				"wikipedia": "de:Kühtaisattel"
			}
		},
		{
			"type": "node",
			"id": 257405858,
			"lat": 47.5638930,
			"lon": 10.6398331,
			"tags": {
				"ele": "898",
				"mountain_pass": "yes"
			}
		},
		{
			"type": "node",
			"id": 258324864,
			"lat": 47.4534883,
			"lon": 10.7315885,
			"tags": {
				"ele": "1030",
				"mountain_pass": "yes",
				"natural": "saddle"
			}
		},
		{
			"type": "node",
			"id": 258958332,
			"lat": 47.5444019,
			"lon": 10.6923245,
			"tags": {
				"mountain_pass": "yes",
				"natural": "saddle"
			}
		},
		{
			"type": "node",
			"id": 259293146,
			"lat": 47.2932319,
			"lon": 10.2426985,
			"tags": {
				"ele": "1758",
				"mountain_pass": "yes",
				"natural": "saddle"
			}
		},
		{
			"type": "node",
			"id": 259308473,
			"lat": 47.3312686,
			"lon": 10.1933969,
			"tags": {
				"alt_name": "Kuhgehrenjoch",
				"ele": "1860",
				"mountain_pass": "yes",
				"name": "Kuhgehrensattel",
				"natural": "saddle",
				"ref:avf": "768;772",
				"wikidata": "Q130634729"
			}
		},
		{
			"type": "node",
			"id": 259315931,
			"lat": 47.2767502,
			"lon": 10.1741376,
			"tags": {
				"mountain_pass": "yes"
			}
		},
		{
			"type": "node",
			"id": 259315971,
			"lat": 47.2764797,
			"lon": 10.2017055,
			"tags": {
				"ele": "1688",
				"mountain_pass": "yes",
				"name": "Schrofenpass",
				"wikidata": "Q1450527",
				"wikipedia": "de:Schrofenpass"
			}
		},
		{
			"type": "node",
			"id": 259316051,
			"lat": 47.2717823,
			"lon": 10.2109067,
			"tags": {
				"alt_name": "Salzbüheljoch",
				"ele": "1787",
				"mountain_pass": "yes",
				"name": "Salzbücheljoch",
				"natural": "saddle",
				"ref:avf": "433",
				"wikidata": "Q131611459"
			}
		},
		{
			"type": "node",
			"id": 259486475,
			"lat": 47.4431520,
			"lon": 11.0503735,
			"tags": {
				"ele": "1750",
				"information": "guidepost",
				"mountain_pass": "yes",
				"name": "Hupfleitenjoch",
				"natural": "saddle",
				"tourism": "information",
				"viewpoint": "yes"
			}
		},
		{
			"type": "node",
			"id": 259552641,
			"lat": 47.4180756,
			"lon": 10.3281104,
			"tags": {
				"alt_name": "Geißfußscharte",
				"ele": "1927",
				"mountain_pass": "yes",
				"name": "Geißfußsattel",
				"natural": "saddle",
				"note": "“Geiß” (für Ziege) ist korrekt. Andere Karten sind falsch.",
				"wikidata": "Q130718262"
			}
		},
		{
			"type": "node",
			"id": 259570032,
			"lat": 47.5509101,
			"lon": 10.4014248,
			"tags": {
				"ele": "1470",
				"mountain_pass": "yes"
			}
		},
		{
			"type": "node",
			"id": 259570607,
			"lat": 47.5495747,
			"lon": 10.4018800,
			"tags": {
				"mountain_pass": "yes"
			}
		},
		{
			"type": "node",
			"id": 259991868,
			"lat": 47.2814554,
			"lon": 8.0875615,
			"tags": {
				"ele": "623",
				"mountain_pass": "yes",
				"name": "Bänkelloch",
				"natural": "saddle"
			}
		},
		{
			"type": "node",
			"id": 262120128,
			"lat": 47.4027307,
			"lon": 9.4110952,
			"tags": {
				"ele": "986",
				"mountain_pass": "yes",
				"name": "Waldegg",
				"natural": "saddle"
			}
		},
		{
			"type": "node",
			"id": 262344864,
			"lat": 48.1102806,
			"lon": 7.6543078,
			"tags": {
				"ele": "385",
				"mountain_pass": "yes",
				"name": "Texaspass",
				"natural": "saddle",
				"official_name": "Auf dem Eck"
			}
		},
		{
			"type": "node",
			"id": 263046459,
			"lat": 48.1925783,
			"lon": 7.0373414,
			"tags": {
				"ele": "794",
				"mountain_pass": "yes",
				"name": "Col de la Séboue",
				"natural": "saddle"
			}
		},
		{
			"type": "node",
			"id": 264035431,
			"lat": 47.6315326,
			"lon": 12.0610545,
			"tags": {
				"mountain_pass": "yes",
				"natural": "saddle"
			}
		},
		{
			"type": "node",
			"id": 264056178,
			"lat": 47.6716794,
			"lon": 11.6610511,
			"tags": {
				"ele": "1227",
				"mountain_pass": "yes",
				"name": "Hirschtalsattel",
				"natural": "saddle",
				"wikidata": "Q108700114",
				"wikipedia": "de:Hirschtalsattel"
			}
		},
		{
			"type": "node",
			"id": 264777536,
			"lat": 47.6532065,
			"lon": 11.4470147,
			"tags": {
				"ele": "1324",
				"mountain_pass": "yes",
				"name": "Glaswandscharte",
				"natural": "saddle"
			}
		},
		{
			"type": "node",
			"id": 266104533,
			"lat": 47.5215708,
			"lon": 9.9141683,
			"tags": {
				"mountain_pass": "yes"
			}
		},
		{
			"type": "node",
			"id": 266575217,
			"lat": 48.4350401,
			"lon": 8.1505888,
			"tags": {
				"ele": "752",
				"mountain_pass": "yes",
				"name": "Schäfersfeld",
				"natural": "saddle"
			}
		},
		{
			"type": "node",
			"id": 267050184,
			"lat": 48.4301842,
			"lon": 8.0924556,
			"tags": {
				"expected_lwn_route_relations": "7",
				"lwn_name": "Kornebene",
				"mountain_pass": "yes",
				"name": "Kornebene",
				"natural": "saddle",
				"network:type": "node_network"
			}
		},
		{
			"type": "node",
			"id": 267082755,
			"lat": 47.8448675,
			"lon": 7.8669962,
			"tags": {
				"ele": "1035",
				"mountain_pass": "yes",
				"name": "Wiedener Eck",
				"natural": "saddle"
			}
		},
		{
			"type": "node",
			"id": 267521873,
			"lat": 47.3977730,
			"lon": 10.2010341,
			"tags": {
				"mountain_pass": "yes"
			}
		},
		{
			"type": "node",
			"id": 268764392,
			"lat": 47.5111194,
			"lon": 10.6017920,
			"tags": {
				"alt_name": "Reintalerjoch",
				"ele": "1846",
				"mountain_pass": "yes",
				"name": "Reintaljöchl",
				"natural": "saddle",
				"ref:avf": "451;452;1020;1024;1036",
				"wikidata": "Q130779836"
			}
		},
		{
			"type": "node",
			"id": 268830023,
			"lat": 47.4338210,
			"lon": 8.0604612,
			"tags": {
				"ele": "621",
				"hiking": "yes",
				"information": "guidepost",
				"mountain_pass": "yes",
				"name": "Staffelegg",
				"natural": "saddle",
				"tourism": "information",
				"wikidata": "Q686547",
				"wikipedia": "de:Staffelegg"
			}
		},
		{
			"type": "node",
			"id": 268971166,
			"lat": 48.1646224,
			"lon": 7.0800035,
			"tags": {
				"ele": "949",
				"mountain_pass": "yes",
				"name": "Col du Bonhomme",
				"name:de": "Diedolshauser Pass",
				"natural": "saddle",
				"wikidata": "Q1107476",
				"wikipedia": "de:Col du Bonhomme"
			}
		},
		{
			"type": "node",
			"id": 269122280,
			"lat": 48.2040919,
			"lon": 7.0319964,
			"tags": {
				"ele": "637",
				"mountain_pass": "yes",
				"name": "Col des Chaufours",
				"natural": "saddle"
			}
		},
		{
			"type": "node",
			"id": 269132073,
			"lat": 47.6554914,
			"lon": 11.4948924,
			"tags": {
				"ele": "1628",
				"ele:source": "label",
				"mountain_pass": "yes",
				"name": "Probstalmsattel",
				"natural": "saddle"
			}
		},
		{
			"type": "node",
			"id": 269368673,
			"lat": 47.6307182,
			"lon": 11.4832811,
			"tags": {
				"ele": "1167",
				"mountain_pass": "yes",
				"name": "Langenecksattel",
				"natural": "saddle"
			}
		},
		{
			"type": "node",
			"id": 270410912,
			"lat": 47.4509441,
			"lon": 10.1694465,
			"tags": {
				"ele": "1629",
				"mountain_pass": "yes",
				"natural": "saddle"
			}
		},
		{
			"type": "node",
			"id": 270938984,
			"lat": 48.5991968,
			"lon": 8.1548352,
			"tags": {
				"expected_lwn_route_relations": "4",
				"lwn_name": "Schönbüch Haus Peduzzi",
				"mountain_pass": "yes",
				"natural": "saddle",
				"network:type": "node_network"
			}
		},
		{
			"type": "node",
			"id": 272052001,
			"lat": 47.4908091,
			"lon": 11.3241815,
			"tags": {
				"mountain_pass": "yes",
				"natural": "saddle"
			}
		},
		{
			"type": "node",
			"id": 272070518,
			"lat": 47.4747710,
			"lon": 11.3628685,
			"tags": {
				"ele": "1787",
				"ele:NN": "1787",
				"mountain_pass": "yes",
				"name": "Jöchel",
				"natural": "saddle"
			}
		},
		{
			"type": "node",
			"id": 274305123,
			"lat": 48.4132971,
			"lon": 8.2450013,
			"tags": {
				"ele": "755",
				"expected_lwn_route_relations": "3",
				"lwn_name": "Freiersberg",
				"mountain_pass": "yes",
				"name": "Freiersberg",
				"natural": "saddle",
				"network:type": "node_network",
				"wikidata": "Q1338872",
				"wikipedia": "de:Freiersberg"
			}
		},
		{
			"type": "node",
			"id": 274719253,
			"lat": 47.6553423,
			"lon": 11.6475851,
			"tags": {
				"ele": "1497",
				"ele:source": "GPS",
				"mountain_pass": "yes",
				"natural": "saddle"
			}
		},
		{
			"type": "node",
			"id": 274823204,
			"lat": 47.4092371,
			"lon": 10.3476872,
			"tags": {
				"ele": "1922",
				"mountain_pass": "yes",
				"name": "Zeigersattel",
				"natural": "saddle",
				"ref:avf": "1308",
				"wikidata": "Q130483487"
			}
		},
		{
			"type": "node",
			"id": 275139620,
			"lat": 47.4175015,
			"lon": 8.3372096,
			"tags": {
				"ele": "664",
				"mountain_pass": "yes",
				"name": "Heitersbergpass",
				"natural": "saddle",
				"wikidata": "Q56293144"
			}
		},
		{
			"type": "node",
			"id": 275163643,
			"lat": 47.5265573,
			"lon": 10.7090720,
			"tags": {
				"ele": "872",
				"mountain_pass": "yes",
				"name": "Kniepass",
				"natural": "saddle",
				"wikidata": "Q21868577",
				"wikimedia_commons": "Category:Kniepass (Lech)",
				"wikipedia": "de:Kniepass (Lech)"
			}
		},
		{
			"type": "node",
			"id": 275414967,
			"lat": 47.8563133,
			"lon": 8.0290759,
			"tags": {
				"ele": "1231.3",
				"mountain_pass": "yes",
				"name": "Feldbergpass",
				"natural": "saddle",
				"wikidata": "Q1402367",
				"wikipedia": "de:Feldbergpass"
			}
		},
		{
			"type": "node",
			"id": 275596515,
			"lat": 47.3567404,
			"lon": 9.9461643,
			"tags": {
				"direction": "159",
				"ele": "895",
				"mountain_pass": "yes",
				"name": "Schnepfegg",
				"natural": "saddle",
				"ref:avf": "61",
				"wikidata": "Q21881616",
				"wikimedia_commons": "Category:Schnepfegg"
			}
		},
		{
			"type": "node",
			"id": 275654404,
			"lat": 47.1194229,
			"lon": 7.0322992,
			"tags": {
				"ele": "1502",
				"mountain_pass": "yes",
				"name": "Col du Chasseral",
				"natural": "saddle",
				"wikidata": "Q663347"
			}
		},
		{
			"type": "node",
			"id": 276942750,
			"lat": 47.7051448,
			"lon": 12.0174169,
			"tags": {
				"mountain_pass": "yes",
				"name": "Reindler Scharte",
				"natural": "saddle"
			}
		},
		{
			"type": "node",
			"id": 276942765,
			"lat": 47.7029405,
			"lon": 12.0172874,
			"tags": {
				"ele": "1611",
				"mountain_pass": "yes",
				"name": "Zeller Scharte",
				"natural": "saddle"
			}
		},
		{
			"type": "node",
			"id": 277021885,
			"lat": 47.5203651,
			"lon": 9.9101839,
			"tags": {
				"mountain_pass": "yes"
			}
		},
		{
			"type": "node",
			"id": 277603328,
			"lat": 47.2167048,
			"lon": 12.1304527,
			"tags": {
				"ele": "1925",
				"mountain_pass": "yes",
				"name": "Breitscharte",
				"natural": "saddle"
			}
		},
		{
			"type": "node",
			"id": 277619881,
			"lat": 47.6977785,
			"lon": 8.9086127,
			"tags": {
				"ele": "683",
				"mountain_pass": "yes",
				"name": "Schienerberg Passhöhe",
				"natural": "saddle"
			}
		},
		{
			"type": "node",
			"id": 277625772,
			"lat": 47.1579595,
			"lon": 12.1395384,
			"tags": {
				"ele": "2724",
				"mountain_pass": "yes",
				"name": "Rainbachscharte",
				"natural": "saddle"
			}
		},
		{
			"type": "node",
			"id": 277716755,
			"lat": 47.5450967,
			"lon": 11.0484985,
			"tags": {
				"ele": "1600",
				"mountain_pass": "yes",
				"natural": "saddle"
			}
		},
		{
			"type": "node",
			"id": 278262574,
			"lat": 47.3987097,
			"lon": 9.9076728,
			"tags": {
				"ele": "1120",
				"mountain_pass": "yes",
				"natural": "saddle"
			}
		},
		{
			"type": "node",
			"id": 278338297,
			"lat": 48.3803806,
			"lon": 7.3268503,
			"tags": {
				"ele": "749",
				"mountain_pass": "yes",
				"name": "Col de la Bellevue",
				"natural": "saddle"
			}
		},
		{
			"type": "node",
			"id": 278464013,
			"lat": 47.1710482,
			"lon": 9.9987205,
			"tags": {
				"direction": "59",
				"ele": "1871",
				"mountain_pass": "yes",
				"name": "Formarinjoch",
				"natural": "saddle"
			}
		},
		{
			"type": "node",
			"id": 278464908,
			"lat": 47.1634628,
			"lon": 9.9877756,
			"tags": {
				"direction": "90",
				"ele": "1918",
				"mountain_pass": "yes",
				"name": "Rauhes Joch",
				"natural": "saddle"
			}
		},
		{
			"type": "node",
			"id": 278548978,
			"lat": 47.0851570,
			"lon": 12.2164444,
			"tags": {
				"ele": "2667",
				"loc_name:de": "Lucke",
				"mountain_pass": "yes",
				"name": "Birnlücke - Forcella del Picco",
				"name:de": "Birnlücke",
				"name:it": "Forcella del Picco",
				"natural": "saddle",
				"wikidata": "Q662117",
				"wikipedia": "it:Forcella del Picco"
			}
		},
		{
			"type": "node",
			"id": 278558548,
			"lat": 47.0813314,
			"lon": 12.1588232,
			"tags": {
				"ele": "2633",
				"mountain_pass": "yes",
				"name": "Krimmler Tauern - Passo dei Tauri",
				"name:de": "Krimmler Tauern",
				"name:it": "Passo dei Tauri",
				"natural": "saddle",
				"wikidata": "Q1229446"
			}
		},
		{
			"type": "node",
			"id": 278560561,
			"lat": 47.0097090,
			"lon": 10.1404337,
			"tags": {
				"mountain_pass": "yes"
			}
		},
		{
			"type": "node",
			"id": 278575064,
			"lat": 48.0363839,
			"lon": 7.0257617,
			"tags": {
				"ele": "1228",
				"mountain_pass": "yes",
				"name": "Col du Schaeferthal",
				"natural": "saddle"
			}
		},
		{
			"type": "node",
			"id": 278787499,
			"lat": 47.3979792,
			"lon": 9.3866754,
			"tags": {
				"ele": "965",
				"mountain_pass": "yes",
				"name": "Egg",
				"natural": "saddle"
			}
		},
		{
			"type": "node",
			"id": 279122360,
			"lat": 46.9876059,
			"lon": 7.5096959,
			"tags": {
				"ele": "692",
				"mountain_pass": "yes",
				"name": "Stockerehöchi",
				"natural": "saddle"
			}
		},
		{
			"type": "node",
			"id": 279163729,
			"lat": 47.2694738,
			"lon": 10.1304510,
			"tags": {
				"ele": "1676",
				"mountain_pass": "yes",
				"name": "Hochtannbergpass",
				"natural": "saddle",
				"wikidata": "Q874001",
				"wikimedia_commons": "Category:Hochtannbergpass",
				"wikipedia": "de:Hochtannbergpass"
			}
		},
		{
			"type": "node",
			"id": 279736778,
			"lat": 47.1763861,
			"lon": 10.1211628,
			"tags": {
				"ele": "2440",
				"mountain_pass": "yes",
				"name": "Madlochjoch",
				"natural": "saddle"
			}
		},
		{
			"type": "node",
			"id": 279941007,
			"lat": 47.2421794,
			"lon": 7.4462817,
			"tags": {
				"ele": "1306",
				"mountain_pass": "yes",
				"natural": "saddle"
			}
		},
		{
			"type": "node",
			"id": 279978919,
			"lat": 47.7281561,
			"lon": 11.9993135,
			"tags": {
				"ele": "1185",
				"mountain_pass": "yes",
				"name": "Eibleck",
				"natural": "saddle"
			}
		},
		{
			"type": "node",
			"id": 280008160,
			"lat": 47.3851620,
			"lon": 10.7520750,
			"tags": {
				"mountain_pass": "yes",
				"natural": "saddle"
			}
		},
		{
			"type": "node",
			"id": 280569127,
			"lat": 48.2181272,
			"lon": 8.8527709,
			"tags": {
				"ele": "884",
				"mountain_pass": "yes",
				"name": "Lochenpass",
				"natural": "saddle"
			}
		},
		{
			"type": "node",
			"id": 280575469,
			"lat": 47.5116443,
			"lon": 10.8690915,
			"tags": {
				"ele": "1900",
				"mountain_pass": "yes",
				"name": "Kreuzjöchl",
				"natural": "saddle"
			}
		},
		{
			"type": "node",
			"id": 281348950,
			"lat": 47.4349387,
			"lon": 10.2635831,
			"tags": {
				"ele": "930",
				"mountain_pass": "yes",
				"natural": "saddle"
			}
		},
		{
			"type": "node",
			"id": 281349667,
			"lat": 47.4253056,
			"lon": 10.1845863,
			"tags": {
				"mountain_pass": "yes"
			}
		},
		{
			"type": "node",
			"id": 281463675,
			"lat": 47.5266705,
			"lon": 10.6211193,
			"tags": {
				"ele": "1600",
				"mountain_pass": "yes",
				"name": "Hundsarschjoch",
				"natural": "saddle",
				"wikidata": "Q21876589"
			}
		},
		{
			"type": "node",
			"id": 282248646,
			"lat": 47.4888279,
			"lon": 10.1061303,
			"tags": {
				"alt_name": "Scheidwangsattel",
				"ele": "1317",
				"mountain_pass": "yes",
				"name": "Scheidwangpass",
				"wikidata": "Q130343484"
			}
		},
		{
			"type": "node",
			"id": 282834552,
			"lat": 47.3927541,
			"lon": 10.3810289,
			"tags": {
				"alt_name": "Laufbacherecksattel",
				"ele": "2128",
				"mountain_pass": "yes",
				"name": "Laufbacher-Eck-Sattel",
				"natural": "saddle",
				"wikidata": "Q130483786"
			}
		},
		{
			"type": "node",
			"id": 283065713,
			"lat": 47.4268328,
			"lon": 11.0422737,
			"tags": {
				"ele": "2465",
				"mountain_pass": "yes",
				"name": "Grießkarscharte",
				"natural": "saddle"
			}
		},
		{
			"type": "node",
			"id": 283184104,
			"lat": 47.6748367,
			"lon": 8.5672017,
			"tags": {
				"ele": "544",
				"mountain_pass": "yes",
				"name": "Hexenplatz",
				"natural": "saddle"
			}
		},
		{
			"type": "node",
			"id": 285971638,
			"lat": 47.3146317,
			"lon": 10.2137470,
			"tags": {
				"ele": "2036",
				"mountain_pass": "yes",
				"name": "Fiderepass",
				"wikidata": "Q21873186"
			}
		},
		{
			"type": "node",
			"id": 285972362,
			"lat": 47.2971451,
			"lon": 10.1966112,
			"tags": {
				"alt_name": "Kemptnerscharte",
				"ele": "2108",
				"mountain_pass": "yes",
				"name": "Kemptner Scharte",
				"natural": "saddle",
				"wikidata": "Q130613934"
			}
		},
		{
			"type": "node",
			"id": 285972364,
			"lat": 47.3138570,
			"lon": 10.2201588,
			"tags": {
				"alt_name": "Saubuckelscharte",
				"ele": "2200",
				"mountain_pass": "yes",
				"name": "Fiderescharte",
				"natural": "saddle",
				"ref:avf": "431;432",
				"wikidata": "Q130354163"
			}
		},
		{
			"type": "node",
			"id": 286011956,
			"lat": 47.4354357,
			"lon": 8.0300873,
			"tags": {
				"ele": "674",
				"hiking": "yes",
				"information": "guidepost",
				"mountain_pass": "yes",
				"name": "Benkerjoch",
				"natural": "saddle",
				"tourism": "information",
				"wikidata": "Q681046"
			}
		},
		{
			"type": "node",
			"id": 286052203,
			"lat": 47.3073370,
			"lon": 8.0841810,
			"tags": {
				"ele": "611",
				"mountain_pass": "yes",
				"name": "Bööler Passhöchi",
				"natural": "saddle",
				"wikidata": "Q686516"
			}
		},
		{
			"type": "node",
			"id": 286463751,
			"lat": 47.2658230,
			"lon": 10.6685639,
			"tags": {
				"ele": "2100",
				"mountain_pass": "yes",
				"name": "Guggersattel",
				"natural": "saddle",
				"source": "survey(2008-07,garmin)"
			}
		},
		{
			"type": "node",
			"id": 286472270,
			"lat": 47.2743911,
			"lon": 10.6567068,
			"tags": {
				"ele": "2440",
				"information": "guidepost",
				"mountain_pass": "yes",
				"name": "Scharnitzsattel",
				"natural": "saddle",
				"source": "survey(2008-07,garmin)",
				"tourism": "information"
			}
		},
		{
			"type": "node",
			"id": 286472392,
			"lat": 47.2953637,
			"lon": 10.6643237,
			"tags": {
				"ele": "2198",
				"information": "guidepost",
				"mountain_pass": "yes",
				"name": "Steinjöchle",
				"natural": "saddle",
				"source": "survey(2008-07,garmin)",
				"tourism": "information",
				"wikidata": "Q21863266",
				"wikimedia_commons": "Category:Steinjöchle"
			}
		},
		{
			"type": "node",
			"id": 286475677,
			"lat": 47.3048421,
			"lon": 10.6782250,
			"tags": {
				"ele": "2139",
				"mountain_pass": "yes",
				"name": "Kromsattel",
				"natural": "saddle"
			}
		},
		{
			"type": "node",
			"id": 286479107,
			"lat": 47.3066978,
			"lon": 10.6851627,
			"tags": {
				"ele": "2203",
				"information": "guidepost",
				"mountain_pass": "yes",
				"name": "Hinterbergjöchle",
				"natural": "saddle",
				"tourism": "information"
			}
		},
		{
			"type": "node",
			"id": 286479168,
			"lat": 47.3064076,
			"lon": 10.6849536,
			"tags": {
				"barrier": "stile",
				"ele": "2202",
				"mountain_pass": "yes",
				"name": "Hinterbergjoch",
				"natural": "saddle"
			}
		},
		{
			"type": "node",
			"id": 286481874,
			"lat": 47.3291119,
			"lon": 10.7449927,
			"tags": {
				"ele": "1564",
				"mountain_pass": "yes",
				"name": "Schweinsteinjoch",
				"natural": "saddle",
				"source": "survey"
			}
		},
		{
			"type": "node",
			"id": 286494577,
			"lat": 47.3495675,
			"lon": 8.4600750,
			"tags": {
				"ele": "558",
				"mountain_pass": "yes",
				"name": "Whiskypass",
				"natural": "saddle"
			}
		},
		{
			"type": "node",
			"id": 286565100,
			"lat": 47.3896073,
			"lon": 11.0089761,
			"tags": {
				"ele": "2116",
				"mountain_pass": "yes",
				"name": "Am Brand",
				"natural": "saddle",
				"source": "survey(2008-07,garmin)"
			}
		},
		{
			"type": "node",
			"id": 286586197,
			"lat": 47.3901262,
			"lon": 11.0213613,
			"tags": {
				"ele": "2163",
				"mountain_pass": "yes",
				"name": "Kaltwassersattel",
				"natural": "saddle",
				"source": "survey(2008-07,garmin)"
			}
		},
		{
			"type": "node",
			"id": 286586199,
			"lat": 47.3887331,
			"lon": 11.0255192,
			"tags": {
				"ele": "2183",
				"mountain_pass": "yes",
				"name": "Kothbachsattel (Wannigjöchl)",
				"natural": "saddle",
				"source": "survey(2008-07,garmin)"
			}
		},
		{
			"type": "node",
			"id": 286687497,
			"lat": 47.4122943,
			"lon": 11.1289228,
			"tags": {
				"alt_name": "Törl",
				"ele": "2375",
				"foot": "yes",
				"mountain_pass": "yes",
				"name": "Dreitorspitzgatterl",
				"natural": "saddle"
			}
		},
		{
			"type": "node",
			"id": 286776086,
			"lat": 47.4370778,
			"lon": 11.0487286,
			"tags": {
				"alt_name": "Höllentor",
				"ele": "2095",
				"mountain_pass": "yes",
				"name": "Rinderscharte",
				"natural": "saddle",
				"source": "survey"
			}
		},
		{
			"type": "node",
			"id": 287147035,
			"lat": 47.2160193,
			"lon": 11.5345470,
			"tags": {
				"ele": "2278",
				"mountain_pass": "yes",
				"name": "Tulfein Jöchl",
				"natural": "saddle"
			}
		},
		{
			"type": "node",
			"id": 287310710,
			"lat": 48.9169933,
			"lon": 7.3189659,
			"tags": {
				"ele": "325",
				"mountain_pass": "yes",
				"name": "Col de Puberg",
				"natural": "tree",
				"note": "The elevation may be rather 323 m, according to Wikipedia article and the source https://www.geoportail.gouv.fr. The sign (350m) is a bit optimistic. >> 2023 new sign indicating 325m",
				"wikidata": "Q16507509"
			}
		},
		{
			"type": "node",
			"id": 287452532,
			"lat": 47.8754863,
			"lon": 7.1273463,
			"tags": {
				"ele": "828",
				"mountain_pass": "yes",
				"name": "Col Amic",
				"natural": "saddle",
				"wikidata": "Q2981945",
				"wikipedia": "fr:Col Amic"
			}
		},
		{
			"type": "node",
			"id": 287830357,
			"lat": 50.2711224,
			"lon": 8.5693288,
			"tags": {
				"ele": "414",
				"mountain_pass": "yes",
				"name": "Saalburgpass",
				"natural": "saddle",
				"wikipedia": "de:Saalburgpass"
			}
		},
		{
			"type": "node",
			"id": 288069601,
			"lat": 47.4584569,
			"lon": 10.5310875,
			"tags": {
				"ele": "1858",
				"mountain_pass": "yes",
				"name": "Gappenfeldscharte",
				"natural": "saddle",
				"ref:avf": "362",
				"wikidata": "Q130537956"
			}
		},
		{
			"type": "node",
			"id": 288069629,
			"lat": 47.4521157,
			"lon": 10.5254507,
			"tags": {
				"mountain_pass": "yes"
			}
		},
		{
			"type": "node",
			"id": 290218050,
			"lat": 47.1828582,
			"lon": 10.4176586,
			"tags": {
				"ele": "2528",
				"mountain_pass": "yes",
				"name": "Winterjöchl",
				"natural": "saddle"
			}
		},
		{
			"type": "node",
			"id": 290525756,
			"lat": 47.4524913,
			"lon": 11.4342404,
			"tags": {
				"ele": "1815",
				"mountain_pass": "yes",
				"name": "Torscharte",
				"natural": "saddle"
			}
		},
		{
			"type": "node",
			"id": 290995788,
			"lat": 47.0387402,
			"lon": 12.1916046,
			"tags": {
				"ele": "2590",
				"mountain_pass": "yes",
				"name": "Lenkjöchl",
				"name:de": "Lenkjöchl",
				"name:it": "Giogo Lungo",
				"natural": "saddle"
			}
		},
		{
			"type": "node",
			"id": 291978584,
			"lat": 47.2821654,
			"lon": 10.1762068,
			"tags": {
				"ele": "2054",
				"mountain_pass": "yes",
				"name": "Koblatpass",
				"wikidata": "Q130603646"
			}
		},
		{
			"type": "node",
			"id": 292754303,
			"lat": 47.3179828,
			"lon": 11.1985505,
			"tags": {
				"ele": "1185",
				"mountain_pass": "yes",
				"name": "Seefelder Sattel",
				"natural": "saddle",
				"wikidata": "Q2264807",
				"wikimedia_commons": "Category:Seefelder Sattel",
				"wikipedia": "de:Seefelder Sattel"
			}
		},
		{
			"type": "node",
			"id": 292761339,
			"lat": 47.3405985,
			"lon": 11.2399813,
			"tags": {
				"ele": "2060",
				"mountain_pass": "yes",
				"name": "Seefelder Joch",
				"natural": "saddle",
				"wikidata": "Q21865704"
			}
		},
		{
			"type": "node",
			"id": 292803487,
			"lat": 47.0007417,
			"lon": 10.7839072,
			"tags": {
				"ele": "2690",
				"mountain_pass": "yes",
				"natural": "saddle"
			}
		},
		{
			"type": "node",
			"id": 292823658,
			"lat": 47.5303216,
			"lon": 10.7224627,
			"tags": {
				"mountain_pass": "yes",
				"name": "Adlergschwend",
				"natural": "saddle"
			}
		},
		{
			"type": "node",
			"id": 292834276,
			"lat": 47.2463835,
			"lon": 10.4888339,
			"tags": {
				"ele": "2445",
				"mountain_pass": "yes",
				"name": "Schafkarscharte",
				"natural": "saddle",
				"source": "GPS"
			}
		},
		{
			"type": "node",
			"id": 293999028,
			"lat": 47.0387021,
			"lon": 8.8880034,
			"tags": {
				"ele": "1560",
				"mountain_pass": "yes",
				"name": "Schwialppass",
				"natural": "saddle",
				"wikidata": "Q1416815",
				"wikipedia": "de:Schwialppass"
			}
		},
		{
			"type": "node",
			"id": 294049485,
			"lat": 47.0461906,
			"lon": 11.4278695,
			"tags": {
				"ele": "2130",
				"mountain_pass": "yes",
				"name": "Eggerjoch",
				"natural": "saddle",
				"wikidata": "Q21873915"
			}
		},
		{
			"type": "node",
			"id": 294158681,
			"lat": 47.4175619,
			"lon": 10.3506847,
			"tags": {
				"mountain_pass": "yes"
			}
		},
		{
			"type": "node",
			"id": 294610578,
			"lat": 47.4455446,
			"lon": 10.0051023,
			"tags": {
				"ele": "1028",
				"mountain_pass": "yes",
				"natural": "saddle",
				"wikidata": "Q132407379"
			}
		},
		{
			"type": "node",
			"id": 294632743,
			"lat": 46.9656577,
			"lon": 9.8734766,
			"tags": {
				"ele": "2371",
				"mountain_pass": "yes",
				"name": "St Antoenier Joch",
				"natural": "saddle"
			}
		},
		{
			"type": "node",
			"id": 294634199,
			"lat": 47.4106612,
			"lon": 9.9478054,
			"tags": {
				"mountain_pass": "yes"
			}
		},
		{
			"type": "node",
			"id": 294682067,
			"lat": 47.3896885,
			"lon": 9.9911610,
			"tags": {
				"ele": "1526",
				"mountain_pass": "yes",
				"name": "Schreiberesattel",
				"natural": "saddle",
				"wikidata": "Q98929141"
			}
		},
		{
			"type": "node",
			"id": 294752619,
			"lat": 47.1449462,
			"lon": 11.2676213,
			"tags": {
				"ele": "2518",
				"mountain_pass": "yes",
				"name": "Seejöchl",
				"natural": "saddle",
				"wikidata": "Q21865710"
			}
		},
		{
			"type": "node",
			"id": 294800078,
			"lat": 47.5138240,
			"lon": 10.6155025,
			"tags": {
				"ele": "1817",
				"mountain_pass": "yes",
				"name": "Vilser Scharte",
				"natural": "saddle",
				"ref:avf": "1020;1023;1024;1025",
				"wikidata": "Q130801513"
			}
		},
		{
			"type": "node",
			"id": 295106363,
			"lat": 47.4340327,
			"lon": 9.8435264,
			"tags": {
				"direction": "124",
				"ele": "1049",
				"mountain_pass": "yes",
				"name": "Lorenapass",
				"wikidata": "Q121032466"
			}
		},
		{
			"type": "node",
			"id": 295209986,
			"lat": 46.9922748,
			"lon": 11.1541140,
			"tags": {
				"alt_name": "Beiljoch",
				"ele": "2672",
				"mountain_pass": "yes",
				"name": "Peiljoch",
				"natural": "saddle",
				"wikidata": "Q814742",
				"wikipedia": "de:Beiljoch"
			}
		},
		{
			"type": "node",
			"id": 295359846,
			"lat": 47.4616792,
			"lon": 10.5417562,
			"tags": {
				"ele": "1855",
				"mountain_pass": "yes",
				"name": "Strindenscharte",
				"natural": "saddle",
				"ref:avf": "1204",
				"wikidata": "Q130537994"
			}
		},
		{
			"type": "node",
			"id": 295906816,
			"lat": 47.1952971,
			"lon": 10.9576850,
			"tags": {
				"ele": "2630",
				"mountain_pass": "yes",
				"name": "Mittertalscharte",
				"natural": "saddle"
			}
		},
		{
			"type": "node",
			"id": 296040730,
			"lat": 47.1699432,
			"lon": 11.5655126,
			"tags": {
				"ele": "2479",
				"mountain_pass": "yes",
				"name": "Naviser Jöchl",
				"natural": "saddle",
				"wikidata": "Q21866218"
			}
		},
		{
			"type": "node",
			"id": 296239874,
			"lat": 46.9890207,
			"lon": 11.2445264,
			"tags": {
				"ele": "2764",
				"mountain_pass": "yes",
				"name": "Simmingjöchl",
				"natural": "saddle",
				"source": "basemap.at"
			}
		},
		{
			"type": "node",
			"id": 296477010,
			"lat": 47.4910016,
			"lon": 10.7691433,
			"tags": {
				"mountain_pass": "yes",
				"name": "Ochsenboden",
				"natural": "saddle"
			}
		},
		{
			"type": "node",
			"id": 296477205,
			"lat": 47.4876569,
			"lon": 10.7814415,
			"tags": {
				"mountain_pass": "yes",
				"name": "Lärchenboden",
				"natural": "saddle"
			}
		},
		{
			"type": "node",
			"id": 296924226,
			"lat": 47.1133305,
			"lon": 8.4157942,
			"tags": {
				"ele": "793",
				"mountain_pass": "yes",
				"name": "Michaelskreuz",
				"natural": "saddle"
			}
		},
		{
			"type": "node",
			"id": 297335423,
			"lat": 47.0437223,
			"lon": 11.3116152,
			"tags": {
				"designation": "Pass",
				"ele": "2372",
				"mountain_pass": "yes",
				"name": "Pinnisjoch",
				"natural": "saddle",
				"wikidata": "Q16587977"
			}
		},
		{
			"type": "node",
			"id": 297751849,
			"lat": 46.9699582,
			"lon": 11.3874345,
			"tags": {
				"ele": "2110",
				"mountain_pass": "yes",
				"name": "Portjoch - Forcella di Porto",
				"name:de": "Portjoch",
				"name:it": "Forcella di Porto",
				"natural": "saddle",
				"wikidata": "Q21873144"
			}
		},
		{
			"type": "node",
			"id": 298165333,
			"lat": 47.2661477,
			"lon": 7.5395614,
			"tags": {
				"mountain_pass": "yes",
				"name": "Balmberg",
				"natural": "saddle"
			}
		},
		{
			"type": "node",
			"id": 298678777,
			"lat": 47.4289261,
			"lon": 7.9859682,
			"tags": {
				"ele": "779",
				"mountain_pass": "yes",
				"name": "Salhöhe",
				"natural": "saddle",
				"wikidata": "Q2214306",
				"wikimedia_commons": "Category:Salhöhe",
				"wikipedia": "de:Salhöhe"
			}
		},
		{
			"type": "node",
			"id": 298810261,
			"lat": 47.2977403,
			"lon": 9.8465584,
			"tags": {
				"direction": "178",
				"ele": "1903",
				"mountain_pass": "yes",
				"name": "Sünser Joch",
				"natural": "saddle",
				"wikidata": "Q27236046"
			}
		},
		{
			"type": "node",
			"id": 299357713,
			"lat": 46.9630841,
			"lon": 8.6433427,
			"tags": {
				"mountain_pass": "yes",
				"name": "Furggelen"
			}
		},
		{
			"type": "node",
			"id": 299536180,
			"lat": 47.3391914,
			"lon": 10.0450946,
			"tags": {
				"mountain_pass": "yes"
			}
		},
		{
			"type": "node",
			"id": 299545737,
			"lat": 47.3191012,
			"lon": 10.0828271,
			"tags": {
				"ele": "1867",
				"mountain_pass": "yes",
				"name": "Starzeljoch",
				"natural": "saddle",
				"ref:avf": "728",
				"wikidata": "Q1364524",
				"wikipedia": "de:Starzeljoch"
			}
		},
		{
			"type": "node",
			"id": 299786350,
			"lat": 47.5281907,
			"lon": 10.0946586,
			"tags": {
				"mountain_pass": "yes"
			}
		},
		{
			"type": "node",
			"id": 299790061,
			"lat": 47.0153175,
			"lon": 12.7218066,
			"tags": {
				"ele": "2484",
				"mountain_pass": "yes",
				"name": "Peischlachtörl",
				"natural": "saddle"
			}
		},
		{
			"type": "node",
			"id": 299807154,
			"lat": 47.1191471,
			"lon": 12.6224822,
			"tags": {
				"ele": "2515",
				"mountain_pass": "yes",
				"name": "Kalser Törl",
				"natural": "saddle",
				"wikidata": "Q1722592",
				"wikipedia": "de:Kalser Tauern"
			}
		},
		{
			"type": "node",
			"id": 300123492,
			"lat": 47.3279765,
			"lon": 9.7197702,
			"tags": {
				"direction": "225",
				"ele": "1489",
				"mountain_pass": "yes",
				"name": "Treietpass",
				"natural": "saddle"
			}
		},
		{
			"type": "node",
			"id": 300209696,
			"lat": 47.1320409,
			"lon": 9.6254377,
			"tags": {
				"alt_name": "Mattajoch",
				"direction": "135",
				"ele": "1867",
				"mountain_pass": "yes",
				"name": "Mattlerjoch",
				"natural": "saddle",
				"tourism": "viewpoint",
				"wikidata": "Q21874719"
			}
		},
		{
			"type": "node",
			"id": 300397282,
			"lat": 47.5902522,
			"lon": 10.0524633,
			"tags": {
				"ele": "897",
				"mountain_pass": "yes"
			}
		},
		{
			"type": "node",
			"id": 300565968,
			"lat": 47.5752394,
			"lon": 10.1110472,
			"tags": {
				"ele": "1120",
				"mountain_pass": "yes",
				"natural": "saddle"
			}
		},
		{
			"type": "node",
			"id": 300617995,
			"lat": 47.5341430,
			"lon": 10.1663318,
			"tags": {
				"mountain_pass": "yes"
			}
		},
		{
			"type": "node",
			"id": 300650790,
			"lat": 47.3935713,
			"lon": 10.1654274,
			"tags": {
				"mountain_pass": "yes",
				"name": "Hörnlepass",
				"wikidata": "Q130341754"
			}
		},
		{
			"type": "node",
			"id": 300971042,
			"lat": 47.3744690,
			"lon": 9.9481359,
			"tags": {
				"ele": "892",
				"mountain_pass": "yes",
				"name": "Bizegg",
				"natural": "saddle",
				"wikidata": "Q131625062"
			}
		},
		{
			"type": "node",
			"id": 301465341,
			"lat": 47.1059147,
			"lon": 11.0403878,
			"tags": {
				"ele": "2868",
				"mountain_pass": "yes",
				"name": "Zwieselbachjoch",
				"natural": "saddle"
			}
		},
		{
			"type": "node",
			"id": 301878109,
			"lat": 46.9529519,
			"lon": 11.8256499,
			"tags": {
				"ele": "2380",
				"mountain_pass": "yes",
				"name": "Kranner Schneid",
				"natural": "saddle"
			}
		},
		{
			"type": "node",
			"id": 301878610,
			"lat": 46.9575607,
			"lon": 11.8080338,
			"tags": {
				"ele": "2407",
				"mountain_pass": "yes",
				"name": "Nevesjoch - Passo di Neves",
				"name:de": "Nevesjoch",
				"name:it": "Passo di Neves",
				"natural": "saddle"
			}
		},
		{
			"type": "node",
			"id": 301904665,
			"lat": 47.3874903,
			"lon": 11.8766865,
			"tags": {
				"ele": "1113",
				"mountain_pass": "yes",
				"name": "Kerschbaumer Sattel",
				"source": "geoimage.at MaxRes",
				"wikidata": "Q1739618",
				"wikimedia_commons": "Category:Kerschbaumer Sattel (Tirol)",
				"wikipedia": "de:Kerschbaumer Sattel (Tirol)"
			}
		},
		{
			"type": "node",
			"id": 304295975,
			"lat": 47.2624780,
			"lon": 9.8348085,
			"tags": {
				"direction": "40",
				"ele": "1836",
				"mountain_pass": "yes",
				"name": "Serajöchle"
			}
		},
		{
			"type": "node",
			"id": 304489519,
			"lat": 47.6520233,
			"lon": 11.4209414,
			"tags": {
				"ele": "1270",
				"ele:NN": "1270",
				"mountain_pass": "yes",
				"name": "Pessenbacher Schneid",
				"natural": "saddle"
			}
		},
		{
			"type": "node",
			"id": 304568613,
			"lat": 47.2665757,
			"lon": 9.8328047,
			"tags": {
				"alt_name": "Furkapass",
				"direction": "154",
				"ele": "1759",
				"mountain_pass": "yes",
				"name": "Furkajoch",
				"name:de": "Furkajoch",
				"name:uk": "Фуркайох",
				"natural": "saddle",
				"wikidata": "Q1256104",
				"wikimedia_commons": "Category:Furkajoch",
				"wikipedia": "de:Furkajoch"
			}
		},
		{
			"type": "node",
			"id": 304627462,
			"lat": 47.4623966,
			"lon": 11.5587752,
			"tags": {
				"ele": "1540",
				"mountain_pass": "yes",
				"name": "Grasbergsattel",
				"natural": "saddle"
			}
		},
		{
			"type": "node",
			"id": 305138012,
			"lat": 48.1924786,
			"lon": 7.1139367,
			"tags": {
				"ele": "905",
				"mountain_pass": "yes",
				"name": "Col des Bagenelles",
				"natural": "saddle",
				"wikidata": "Q2982208",
				"wikipedia": "fr:Col des Bagenelles"
			}
		},
		{
			"type": "node",
			"id": 305476642,
			"lat": 46.9805668,
			"lon": 7.5170238,
			"tags": {
				"ele": "769",
				"mountain_pass": "yes",
				"name": "Talhöchi",
				"natural": "saddle"
			}
		},
		{
			"type": "node",
			"id": 305482599,
			"lat": 47.6433033,
			"lon": 11.6449773,
			"tags": {
				"ele": "1469",
				"mountain_pass": "yes",
				"name": "Mariaeck",
				"natural": "saddle"
			}
		},
		{
			"type": "node",
			"id": 306093782,
			"lat": 48.5753895,
			"lon": 9.4837246,
			"tags": {
				"ele": "615",
				"mountain_pass": "yes",
				"name": "Sattelbogen",
				"natural": "saddle",
				"note": "FIXME: Elevation only very rough!"
			}
		},
		{
			"type": "node",
			"id": 306297401,
			"lat": 47.2299456,
			"lon": 7.4110004,
			"tags": {
				"ele": "1216",
				"mountain_pass": "yes",
				"natural": "saddle"
			}
		},
		{
			"type": "node",
			"id": 306574649,
			"lat": 47.3781886,
			"lon": 10.3251301,
			"tags": {
				"mountain_pass": "yes"
			}
		},
		{
			"type": "node",
			"id": 307927004,
			"lat": 47.3923592,
			"lon": 9.4609275,
			"tags": {
				"ele": "1058",
				"mountain_pass": "yes",
				"name": "Wissegg",
				"natural": "saddle",
				"note": "elevation = estimate based on guidepost in the north"
			}
		},
		{
			"type": "node",
			"id": 308233054,
			"lat": 47.5338263,
			"lon": 10.5653427,
			"tags": {
				"ele": "1743",
				"mountain_pass": "yes"
			}
		},
		{
			"type": "node",
			"id": 308452997,
			"lat": 47.5132629,
			"lon": 10.5963296,
			"tags": {
				"ele": "1818",
				"mountain_pass": "yes",
				"name": "Füssener Jöchl",
				"natural": "saddle",
				"ref:avf": "1012;1017;1024",
				"wikidata": "Q21876596"
			}
		},
		{
			"type": "node",
			"id": 308678966,
			"lat": 47.5250736,
			"lon": 10.5829134,
			"tags": {
				"ele": "1718",
				"mountain_pass": "yes",
				"name": "Vilser Jöchl",
				"natural": "saddle",
				"ref:avf": "1006",
				"wikidata": "Q21876590"
			}
		},
		{
			"type": "node",
			"id": 308750715,
			"lat": 48.0121818,
			"lon": 7.9143742,
			"tags": {
				"expected_lwn_route_relations": "4",
				"lwn_name": "Ochsenlager Rosmarientanne",
				"mountain_pass": "yes",
				"name": "Ochsenlager",
				"network:type": "node_network"
			}
		},
		{
			"type": "node",
			"id": 309079966,
			"lat": 47.3848228,
			"lon": 9.2924284,
			"tags": {
				"ele": "858",
				"mountain_pass": "yes",
				"name": "Egg",
				"natural": "saddle"
			}
		},
		{
			"type": "node",
			"id": 309083930,
			"lat": 47.2979771,
			"lon": 10.3540897,
			"tags": {
				"alt_name": "Karerjoch",
				"ele": "2290",
				"mountain_pass": "yes",
				"name": "Karjoch",
				"natural": "saddle",
				"ref:avf": "1596;1601",
				"wikidata": "Q1729659",
				"wikipedia": "de:Karjoch"
			}
		},
		{
			"type": "node",
			"id": 309442053,
			"lat": 48.0866149,
			"lon": 7.6907259,
			"tags": {
				"ele": "383",
				"mountain_pass": "yes",
				"name": "Vogelsang-Pass",
				"natural": "saddle"
			}
		},
		{
			"type": "node",
			"id": 309527163,
			"lat": 47.1747514,
			"lon": 10.3453120,
			"tags": {
				"ele": "2371",
				"mountain_pass": "yes",
				"name": "Kridlonscharte",
				"natural": "saddle"
			}
		},
		{
			"type": "node",
			"id": 309527391,
			"lat": 47.1795781,
			"lon": 10.3852134,
			"tags": {
				"ele": "2303",
				"mountain_pass": "yes",
				"name": "Alperschonjoch",
				"natural": "saddle"
			}
		},
		{
			"type": "node",
			"id": 309548890,
			"lat": 47.1884969,
			"lon": 10.4252202,
			"tags": {
				"ele": "2632",
				"mountain_pass": "yes",
				"name": "Grießlscharte",
				"natural": "saddle"
			}
		},
		{
			"type": "node",
			"id": 309549139,
			"lat": 47.1929606,
			"lon": 10.4939605,
			"tags": {
				"ele": "2599",
				"mountain_pass": "yes",
				"name": "Seescharte",
				"natural": "saddle",
				"source": "GPS"
			}
		},
		{
			"type": "node",
			"id": 309642347,
			"lat": 47.3241598,
			"lon": 10.3482971,
			"tags": {
				"ele": "2201",
				"mountain_pass": "yes",
				"name": "Marchsattel",
				"natural": "saddle",
				"ref:avf": "437",
				"wikidata": "Q130554306"
			}
		},
		{
			"type": "node",
			"id": 309642364,
			"lat": 47.3236568,
			"lon": 10.3318098,
			"tags": {
				"ele": "2206",
				"mountain_pass": "yes",
				"name": "Fürschießersattel",
				"natural": "saddle",
				"wikidata": "Q130554058"
			}
		},
		{
			"type": "node",
			"id": 310171575,
			"lat": 47.1787345,
			"lon": 11.2813557,
			"tags": {
				"ele": "2260",
				"mountain_pass": "yes",
				"name": "Hoadlsattel",
				"natural": "saddle"
			}
		},
		{
			"type": "node",
			"id": 311087582,
			"lat": 47.5317481,
			"lon": 8.3729953,
			"tags": {
				"direction": "north",
				"ele": "506",
				"mountain_pass": "yes",
				"name": "Siglistorfer",
				"natural": "saddle"
			}
		},
		{
			"type": "node",
			"id": 311142217,
			"lat": 47.7267006,
			"lon": 12.1844338,
			"tags": {
				"ele": "1315",
				"mountain_pass": "yes",
				"natural": "saddle"
			}
		},
		{
			"type": "node",
			"id": 312144375,
			"lat": 47.4408657,
			"lon": 10.5021859,
			"tags": {
				"ele": "1970",
				"mountain_pass": "yes",
				"name": "Westliches Lachenjoch",
				"natural": "saddle",
				"ref:avf": "1182",
				"wikidata": "Q130537174"
			}
		},
		{
			"type": "node",
			"id": 314037074,
			"lat": 47.4002755,
			"lon": 9.3980343,
			"tags": {
				"ele": "1005",
				"mountain_pass": "yes",
				"name": "Häuslersegg",
				"natural": "saddle"
			}
		},
		{
			"type": "node",
			"id": 314418203,
			"lat": 49.4731757,
			"lon": 12.7287208,
			"tags": {
				"ele": "756",
				"mountain_pass": "yes",
				"name": "Vranovské sedlo",
				"name:cs": "Vranovské sedlo",
				"name:de": "Frohnauer Pass",
				"natural": "saddle"
			}
		},
		{
			"type": "node",
			"id": 315569648,
			"lat": 47.5410947,
			"lon": 8.1910581,
			"tags": {
				"ele": "599",
				"mountain_pass": "yes",
				"name": "Egg",
				"natural": "saddle",
				"source": "Club des Cent Cols"
			}
		},
		{
			"type": "node",
			"id": 315632647,
			"lat": 47.3328242,
			"lon": 12.0631812,
			"tags": {
				"ele": "1689",
				"mountain_pass": "yes",
				"name": "Siedeljoch",
				"natural": "saddle",
				"wikidata": "Q21865763"
			}
		},
		{
			"type": "node",
			"id": 315875502,
			"lat": 49.0541718,
			"lon": 7.7986191,
			"tags": {
				"ele": "338",
				"mountain_pass": "yes",
				"name": "Col du Schaufelshald",
				"natural": "saddle"
			}
		},
		{
			"type": "node",
			"id": 316649655,
			"lat": 47.2654466,
			"lon": 9.4237312,
			"tags": {
				"ele": "1710",
				"mountain_pass": "yes",
				"name": "Bogartenlücke",
				"natural": "saddle"
			}
		},
		{
			"type": "node",
			"id": 316658452,
			"lat": 47.2562945,
			"lon": 9.4024044,
			"tags": {
				"ele": "1855",
				"hiking": "yes",
				"image": "https://commons.wikimedia.org/wiki/File:Widderalpsattel.jpg",
				"information": "guidepost",
				"mountain_pass": "yes",
				"name": "Widderalpsattel",
				"natural": "saddle",
				"tourism": "information"
			}
		},
		{
			"type": "node",
			"id": 319757133,
			"lat": 47.5049826,
			"lon": 10.6643039,
			"tags": {
				"alt_name": "Sulztaljoch",
				"ele": "1709",
				"mountain_pass": "yes",
				"name": "Hahlejoch",
				"natural": "saddle",
				"wikidata": "Q131081145"
			}
		},
		{
			"type": "node",
			"id": 321138721,
			"lat": 47.3300681,
			"lon": 10.6385232,
			"tags": {
				"mountain_pass": "yes",
				"natural": "saddle"
			}
		},
		{
			"type": "node",
			"id": 321175085,
			"lat": 46.9772867,
			"lon": 10.9547358,
			"tags": {
				"ele": "2727",
				"mountain_pass": "yes",
				"name": "Hainbachjoch",
				"natural": "saddle"
			}
		},
		{
			"type": "node",
			"id": 321175757,
			"lat": 47.0215116,
			"lon": 10.9166432,
			"tags": {
				"ele": "3034",
				"mountain_pass": "yes",
				"natural": "saddle",
				"source": "estimated from height lines"
			}
		},
		{
			"type": "node",
			"id": 321175776,
			"lat": 47.0263362,
			"lon": 10.9030608,
			"tags": {
				"ele": "2639",
				"mountain_pass": "yes",
				"name": "Breitlehnjöchel",
				"natural": "saddle",
				"source": "GPS",
				"wikidata": "Q21873651"
			}
		},
		{
			"type": "node",
			"id": 321175822,
			"lat": 47.0424280,
			"lon": 10.9016980,
			"tags": {
				"ele": "2809",
				"mountain_pass": "yes",
				"name": "Reiserscharte",
				"natural": "saddle",
				"source": "estimated from height lines"
			}
		},
		{
			"type": "node",
			"id": 321175927,
			"lat": 47.0819898,
			"lon": 10.8977512,
			"tags": {
				"ele": "2797",
				"mountain_pass": "yes",
				"name": "Felderjöchl",
				"natural": "saddle",
				"source": "GPS",
				"source:ele": "basemap"
			}
		},
		{
			"type": "node",
			"id": 321178241,
			"lat": 47.1378780,
			"lon": 10.8257020,
			"tags": {
				"mountain_pass": "yes",
				"name": "Südscharte",
				"natural": "saddle"
			}
		},
		{
			"type": "node",
			"id": 321178513,
			"lat": 46.9634564,
			"lon": 10.7934893,
			"tags": {
				"ele": "3093",
				"mountain_pass": "yes",
				"name": "Rostizjoch",
				"natural": "saddle",
				"source": "estimated from height lines",
				"wikidata": "Q21865230"
			}
		},
		{
			"type": "node",
			"id": 321178573,
			"lat": 46.9770733,
			"lon": 10.7988880,
			"tags": {
				"ele": "3138",
				"mountain_pass": "yes",
				"name": "Wazejoch",
				"natural": "saddle"
			}
		},
		{
			"type": "node",
			"id": 321178635,
			"lat": 46.9939408,
			"lon": 10.7953943,
			"tags": {
				"ele": "3020",
				"mountain_pass": "yes",
				"name": "Schneeiges Madatschjoch",
				"natural": "saddle",
				"source": "TIRIS"
			}
		},
		{
			"type": "node",
			"id": 321178661,
			"lat": 47.0044700,
			"lon": 10.7985100,
			"tags": {
				"ele": "3196",
				"mountain_pass": "yes",
				"name": "Schwabenjoch",
				"natural": "saddle"
			}
		},
		{
			"type": "node",
			"id": 321178692,
			"lat": 47.0141163,
			"lon": 10.8127262,
			"tags": {
				"alt_name": "Neururer Jöchl",
				"ele": "2830",
				"mountain_pass": "yes",
				"name": "Verpeiljoch",
				"natural": "saddle"
			}
		},
		{
			"type": "node",
			"id": 321178762,
			"lat": 47.0463220,
			"lon": 10.7998130,
			"tags": {
				"ele": "2903",
				"mountain_pass": "yes",
				"natural": "saddle"
			}
		},
		{
			"type": "node",
			"id": 321178776,
			"lat": 47.0530630,
			"lon": 10.8013900,
			"tags": {
				"ele": "2810",
				"mountain_pass": "yes",
				"name": "Dristkogelscharte",
				"natural": "saddle",
				"source": "estimated from height lines"
			}
		},
		{
			"type": "node",
			"id": 321178790,
			"lat": 47.0615070,
			"lon": 10.7956120,
			"tags": {
				"ele": "2746",
				"mountain_pass": "yes",
				"name": "Kreuznieder",
				"natural": "saddle",
				"source": "estimated from height lines"
			}
		},
		{
			"type": "node",
			"id": 321568687,
			"lat": 46.9722043,
			"lon": 11.1257970,
			"tags": {
				"ele": "3055",
				"mountain_pass": "yes",
				"name": "Fernaujoch",
				"natural": "saddle",
				"tourism": "viewpoint"
			}
		},
		{
			"type": "node",
			"id": 321598555,
			"lat": 48.9165387,
			"lon": 7.5424963,
			"tags": {
				"ele": "340",
				"mountain_pass": "yes",
				"name": "Col Kalte Eichen",
				"natural": "saddle"
			}
		},
		{
			"type": "node",
			"id": 321600188,
			"lat": 48.9248243,
			"lon": 7.5356729,
			"tags": {
				"ele": "341",
				"mountain_pass": "yes",
				"name": "Eselsplatz",
				"natural": "saddle"
			}
		},
		{
			"type": "node",
			"id": 321602222,
			"lat": 48.9208889,
			"lon": 7.5498498,
			"tags": {
				"ele": "370",
				"mountain_pass": "yes",
				"name": "Col du Hochfirst",
				"natural": "saddle"
			}
		},
		{
			"type": "node",
			"id": 323149416,
			"lat": 47.4482333,
			"lon": 11.6172031,
			"tags": {
				"ele": "1669",
				"mountain_pass": "yes",
				"name": "Plumssattel",
				"natural": "saddle",
				"wikidata": "Q108891262",
				"wikipedia": "de:Plumssattel"
			}
		},
		{
			"type": "node",
			"id": 324731013,
			"lat": 47.3379590,
			"lon": 10.0717642,
			"tags": {
				"mountain_pass": "yes"
			}
		},
		{
			"type": "node",
			"id": 324894230,
			"lat": 47.3906781,
			"lon": 9.8871661,
			"tags": {
				"ele": "787",
				"mountain_pass": "yes",
				"name": "Bezegg",
				"natural": "saddle",
				"wikidata": "Q131622080"
			}
		},
		{
			"type": "node",
			"id": 324924618,
			"lat": 47.2283625,
			"lon": 10.1021854,
			"tags": {
				"alt_name": "Mohnenfluhsattel",
				"ele": "2316",
				"mountain_pass": "yes",
				"name": "Mohnensattel",
				"natural": "saddle",
				"ref:avf": "740",
				"wikidata": "Q131822753"
			}
		},
		{
			"type": "node",
			"id": 328226317,
			"lat": 47.0217020,
			"lon": 10.7068500,
			"tags": {
				"ele": "2625",
				"mountain_pass": "yes",
				"natural": "saddle"
			}
		},
		{
			"type": "node",
			"id": 328338167,
			"lat": 46.9706000,
			"lon": 10.6882670,
			"tags": {
				"ele": "2852",
				"mountain_pass": "yes",
				"name": "Pfroslkopfjoch",
				"natural": "saddle"
			}
		},
		{
			"type": "node",
			"id": 328338286,
			"lat": 46.9629570,
			"lon": 10.6855430,
			"tags": {
				"ele": "2875",
				"mountain_pass": "yes",
				"name": "Tauferer Jöchl",
				"natural": "saddle",
				"source": "estimated from height lines"
			}
		},
		{
			"type": "node",
			"id": 328340741,
			"lat": 47.0127680,
			"lon": 10.7101270,
			"tags": {
				"ele": "2799",
				"mountain_pass": "yes",
				"natural": "saddle"
			}
		},
		{
			"type": "node",
			"id": 328340909,
			"lat": 47.0040786,
			"lon": 10.7095072,
			"tags": {
				"ele": "2644",
				"mountain_pass": "yes",
				"name": "Kuppscharte",
				"natural": "saddle",
				"source": "ÖK50"
			}
		},
		{
			"type": "node",
			"id": 328340966,
			"lat": 46.9886851,
			"lon": 10.7081036,
			"tags": {
				"alt_name": "Rifenkarscharte;Riefenkarscharte",
				"ele": "2889",
				"mountain_pass": "yes",
				"name": "Rifekarscharte",
				"natural": "saddle",
				"source": "ÖK50"
			}
		},
		{
			"type": "node",
			"id": 328341048,
			"lat": 46.9840772,
			"lon": 10.6987683,
			"tags": {
				"ele": "2927",
				"mountain_pass": "yes",
				"natural": "saddle"
			}
		},
		{
			"type": "node",
			"id": 328349817,
			"lat": 46.9469680,
			"lon": 10.6876420,
			"tags": {
				"ele": "3017",
				"mountain_pass": "yes",
				"natural": "saddle"
			}
		},
		{
			"type": "node",
			"id": 328362825,
			"lat": 47.0132831,
			"lon": 10.2238354,
			"tags": {
				"ele": "2666",
				"mountain_pass": "yes",
				"name": "Dürrschartli",
				"natural": "saddle",
				"source": "GPS"
			}
		},
		{
			"type": "node",
			"id": 328384271,
			"lat": 47.2298392,
			"lon": 10.6068877,
			"tags": {
				"ele": "2422",
				"mountain_pass": "yes",
				"name": "Verborgene Gratscharte",
				"natural": "saddle",
				"source": "estimated from NASA elevation data (probably very inexact)"
			}
		},
		{
			"type": "node",
			"id": 328396801,
			"lat": 47.1748665,
			"lon": 10.3988196,
			"tags": {
				"ele": "2464",
				"mountain_pass": "yes",
				"name": "Flarschjoch",
				"natural": "saddle",
				"source": "Survey; geoimage.at"
			}
		},
		{
			"type": "node",
			"id": 330007979,
			"lat": 47.4228870,
			"lon": 9.8091512,
			"tags": {
				"direction": "199",
				"ele": "1140",
				"mountain_pass": "yes",
				"name": "Losenpass",
				"natural": "saddle",
				"wikidata": "Q996481",
				"wikimedia_commons": "Category:Losenpass",
				"wikipedia": "de:Losenpass"
			}
		},
		{
			"type": "node",
			"id": 330817941,
			"lat": 47.3160826,
			"lon": 10.2279336,
			"tags": {
				"ele": "2015",
				"mountain_pass": "yes",
				"name": "Rossgundscharte",
				"ref:avf": "780",
				"wikidata": "Q130614250"
			}
		},
		{
			"type": "node",
			"id": 333158334,
			"lat": 47.4784183,
			"lon": 10.4792712,
			"tags": {
				"mountain_pass": "yes"
			}
		},
		{
			"type": "node",
			"id": 333372189,
			"lat": 47.1645659,
			"lon": 11.6146455,
			"tags": {
				"ele": "2359",
				"mountain_pass": "yes",
				"name": "Klammjoch",
				"natural": "saddle",
				"wikidata": "Q21868432"
			}
		},
		{
			"type": "node",
			"id": 333899942,
			"lat": 46.9707464,
			"lon": 11.7512173,
			"tags": {
				"ele": "3082",
				"mountain_pass": "yes",
				"name": "Schlegeisscharte",
				"natural": "saddle"
			}
		},
		{
			"type": "node",
			"id": 333900159,
			"lat": 46.9904069,
			"lon": 11.7932308,
			"tags": {
				"ele": "3240",
				"mountain_pass": "yes",
				"name": "Östliche Möselescharte",
				"natural": "saddle"
			}
		},
		{
			"type": "node",
			"id": 333900251,
			"lat": 46.9926215,
			"lon": 11.8262216,
			"tags": {
				"ele": "2999",
				"mountain_pass": "yes",
				"name": "Innerjoch - Giogo di Dentro",
				"name:de": "Innerjoch",
				"name:it": "Giogo di Dentro",
				"natural": "saddle"
			}
		},
		{
			"type": "node",
			"id": 333900338,
			"lat": 47.0020208,
			"lon": 11.8540121,
			"tags": {
				"ele": "3062",
				"mountain_pass": "yes",
				"name": "Schwarzenbachjoch - Giogo di Rio Nero",
				"name:de": "Schwarzenbachjoch",
				"name:it": "Giogo di Rio Nero",
				"natural": "saddle"
			}
		},
		{
			"type": "node",
			"id": 333900425,
			"lat": 47.0161538,
			"lon": 11.8875913,
			"tags": {
				"ele": "3028",
				"mountain_pass": "yes",
				"name": "Tribbachsattel",
				"name:de": "Trippachsattel",
				"name:it": "Forcella di Riotorbo",
				"natural": "saddle"
			}
		},
		{
			"type": "node",
			"id": 333900480,
			"lat": 47.0251154,
			"lon": 11.9044738,
			"tags": {
				"ele": "3027",
				"mountain_pass": "yes",
				"name": "Floitenjoch",
				"name:de": "Floitenjoch",
				"name:it": "Giogo di Floite",
				"natural": "saddle"
			}
		},
		{
			"type": "node",
			"id": 333900506,
			"lat": 47.0281010,
			"lon": 11.9110909,
			"tags": {
				"ele": "3182",
				"mountain_pass": "yes",
				"name": "Trippachscharte",
				"natural": "saddle"
			}
		},
		{
			"type": "node",
			"id": 333900587,
			"lat": 47.0375069,
			"lon": 11.9327334,
			"tags": {
				"ele": "2760",
				"mountain_pass": "yes",
				"name": "Frankbachjoch - Giogo di Riofranco",
				"name:de": "Frankbachjoch",
				"name:it": "Giogo di Riofranco",
				"natural": "saddle"
			}
		},
		{
			"type": "node",
			"id": 333900841,
			"lat": 47.0449829,
			"lon": 11.9717395,
			"tags": {
				"ele": "2832",
				"mountain_pass": "yes",
				"name": "Wollbachjoch",
				"name:de": "Wollbachjoch",
				"name:it": "Gioge di Valle",
				"natural": "saddle"
			}
		},
		{
			"type": "node",
			"id": 333900950,
			"lat": 47.0472570,
			"lon": 12.0148457,
			"tags": {
				"ele": "2553",
				"mountain_pass": "yes",
				"name": "Hörndljoch - Giogo del Cornetto",
				"name:de": "Hörndljoch",
				"name:it": "Giogo del Cornetto",
				"natural": "saddle"
			}
		},
		{
			"type": "node",
			"id": 333900974,
			"lat": 47.0499423,
			"lon": 12.0277161,
			"tags": {
				"ele": "2635",
				"mountain_pass": "yes",
				"name": "Mitterjoch - Giogo di Mezzo",
				"name:de": "Mitterjoch",
				"name:it": "Giogo di Mezzo",
				"natural": "saddle"
			}
		},
		{
			"type": "node",
			"id": 333901020,
			"lat": 47.0612066,
			"lon": 12.0459853,
			"tags": {
				"ele": "2904",
				"mountain_pass": "yes",
				"name": "Grießbachjöchl - Passo di Gries",
				"name:de": "Grießbachjöchl",
				"name:it": "Passo di Gries",
				"natural": "saddle"
			}
		},
		{
			"type": "node",
			"id": 333932615,
			"lat": 47.4032830,
			"lon": 11.6495720,
			"tags": {
				"mountain_pass": "yes",
				"name": "Kaserjoch",
				"natural": "saddle"
			}
		},
		{
			"type": "node",
			"id": 334277755,
			"lat": 47.3401407,
			"lon": 10.2077864,
			"tags": {
				"mountain_pass": "yes"
			}
		},
		{
			"type": "node",
			"id": 336517417,
			"lat": 47.3135964,
			"lon": 10.2266347,
			"tags": {
				"ele": "2053",
				"mountain_pass": "yes",
				"natural": "saddle"
			}
		},
		{
			"type": "node",
			"id": 337178488,
			"lat": 49.2706081,
			"lon": 8.0240022,
			"tags": {
				"ele": "403",
				"mountain_pass": "yes"
			}
		},
		{
			"type": "node",
			"id": 338985529,
			"lat": 47.1496847,
			"lon": 12.1310531,
			"tags": {
				"ele": "2690",
				"mountain_pass": "yes",
				"name": "Roßkarscharte",
				"natural": "saddle"
			}
		},
		{
			"type": "node",
			"id": 339228745,
			"lat": 47.6188077,
			"lon": 11.8076929,
			"tags": {
				"ele": "1243",
				"ele:source": "GPS",
				"mountain_pass": "yes",
				"name": "Lapbergsattel",
				"natural": "saddle"
			}
		},
		{
			"type": "node",
			"id": 341332662,
			"lat": 47.6788083,
			"lon": 12.0355483,
			"tags": {
				"ele": "1123",
				"mountain_pass": "yes",
				"name": "Sudelfeldpass",
				"wikidata": "Q2363140",
				"wikipedia": "de:Sudelfeldpass"
			}
		},
		{
			"type": "node",
			"id": 345179141,
			"lat": 47.1745711,
			"lon": 10.1001764,
			"tags": {
				"ele": "2009",
				"mountain_pass": "yes",
				"name": "Stierlochjoch",
				"natural": "saddle"
			}
		},
		{
			"type": "node",
			"id": 353740572,
			"lat": 47.6224985,
			"lon": 10.1677679,
			"tags": {
				"ele": "1205",
				"mountain_pass": "yes"
			}
		},
		{
			"type": "node",
			"id": 364621254,
			"lat": 47.5557093,
			"lon": 8.3857487,
			"tags": {
				"direction": "northeast",
				"ele": "526",
				"mountain_pass": "yes",
				"name": "Belchen",
				"natural": "saddle"
			}
		},
		{
			"type": "node",
			"id": 367753377,
			"lat": 47.4567926,
			"lon": 11.4119317,
			"tags": {
				"mountain_pass": "yes",
				"natural": "saddle"
			}
		},
		{
			"type": "node",
			"id": 367949225,
			"lat": 50.1239638,
			"lon": 8.1674325,
			"tags": {
				"description": "Fußgänger sollen hier nicht die Bundesstraße queren, sondern die Unterführung weiter südlich benutzen.",
				"ele": "423",
				"mountain_pass": "yes",
				"name": "Eiserne Hand",
				"natural": "saddle",
				"note": "Der eigentliche Sattelpunkt liegt etwas weiter östlich."
			}
		},
		{
			"type": "node",
			"id": 370338153,
			"lat": 47.4560446,
			"lon": 9.0040401,
			"tags": {
				"ele": "638",
				"mountain_pass": "yes",
				"name": "Hochwacht Roset",
				"natural": "saddle"
			}
		},
		{
			"type": "node",
			"id": 372968807,
			"lat": 49.0531613,
			"lon": 7.7933648,
			"tags": {
				"ele": "334",
				"mountain_pass": "yes",
				"name": "Col du Litschhof",
				"natural": "saddle",
				"wikidata": "Q16507507",
				"wikipedia": "fr:Col du Litschhof"
			}
		},
		{
			"type": "node",
			"id": 374156028,
			"lat": 48.1384655,
			"lon": 7.9568670,
			"tags": {
				"ele": "454",
				"expected_lwn_route_relations": "3",
				"lwn_name": "Gescheid",
				"mountain_pass": "yes",
				"name": "Gscheid",
				"natural": "saddle",
				"network:type": "node_network",
				"wikidata": "Q1363127",
				"wikipedia": "de:Gscheid (Schwarzwald)"
			}
		},
		{
			"type": "node",
			"id": 375689126,
			"lat": 47.6101032,
			"lon": 12.0568876,
			"tags": {
				"mountain_pass": "yes",
				"natural": "saddle"
			}
		},
		{
			"type": "node",
			"id": 378107062,
			"lat": 48.7552113,
			"lon": 7.3309611,
			"tags": {
				"ele": "413",
				"mountain_pass": "yes",
				"name": "Col de Saverne",
				"name:de": "Zaberner Steige",
				"name:fr": "Col de Saverne",
				"natural": "saddle",
				"wikidata": "Q138948",
				"wikipedia": "fr:Col de Saverne"
			}
		},
		{
			"type": "node",
			"id": 384842905,
			"lat": 47.6297030,
			"lon": 10.1424522,
			"tags": {
				"ele": "925",
				"mountain_pass": "yes"
			}
		},
		{
			"type": "node",
			"id": 386883115,
			"lat": 46.9620652,
			"lon": 11.5149600,
			"tags": {
				"ele": "2212",
				"mountain_pass": "yes",
				"name": "Schlüsseljoch - Passo della Chiave",
				"name:de": "Schlüsseljoch",
				"name:it": "Passo della Chiave",
				"natural": "saddle"
			}
		},
		{
			"type": "node",
			"id": 390421679,
			"lat": 49.0424794,
			"lon": 7.7302633,
			"tags": {
				"ele": "390",
				"mountain_pass": "yes",
				"name": "Col de Hichtenbach",
				"natural": "saddle"
			}
		},
		{
			"type": "node",
			"id": 391035106,
			"lat": 49.0230323,
			"lon": 7.6767608,
			"tags": {
				"ele": "368",
				"mountain_pass": "yes",
				"name": "Col de Wittschloessel",
				"natural": "saddle"
			}
		},
		{
			"type": "node",
			"id": 391198036,
			"lat": 49.0139229,
			"lon": 7.6827210,
			"tags": {
				"ele": "423",
				"mountain_pass": "yes",
				"name": "Col du Petit Grueneberg",
				"natural": "saddle"
			}
		},
		{
			"type": "node",
			"id": 391210476,
			"lat": 48.9857839,
			"lon": 7.6217866,
			"tags": {
				"ele": "482",
				"mountain_pass": "yes",
				"name": "Col du Pottaschkopf",
				"name:de": "Pottaschkopfpass",
				"name:en": "Pottaschkopf pass",
				"natural": "saddle"
			}
		},
		{
			"type": "node",
			"id": 391495334,
			"lat": 48.9541690,
			"lon": 7.5855149,
			"tags": {
				"ele": "436",
				"mountain_pass": "yes",
				"name": "Col de l'Ungerthal",
				"name:de": "Ungertalpass",
				"natural": "saddle",
				"source": "Club vosgien"
			}
		},
		{
			"type": "node",
			"id": 391495340,
			"lat": 48.9533481,
			"lon": 7.5772738,
			"tags": {
				"ele": "408",
				"mountain_pass": "yes",
				"name": "Col du Holdereck",
				"name:de": "Holdereckpass",
				"natural": "saddle"
			}
		},
		{
			"type": "node",
			"id": 391697192,
			"lat": 47.7800473,
			"lon": 8.0036575,
			"tags": {
				"ele": "1232",
				"mountain_pass": "yes",
				"name": "Hirzenboden",
				"natural": "saddle"
			}
		},
		{
			"type": "node",
			"id": 393127100,
			"lat": 47.4690583,
			"lon": 7.9425689,
			"tags": {
				"ele": "471",
				"mountain_pass": "yes",
				"name": "Rothenfluh Passhöhe",
				"natural": "saddle"
			}
		},
		{
			"type": "node",
			"id": 393978588,
			"lat": 48.1077806,
			"lon": 7.7002262,
			"tags": {
				"ele": "431",
				"mountain_pass": "yes",
				"name": "Bahlinger Eck",
				"natural": "saddle"
			}
		},
		{
			"type": "node",
			"id": 394860980,
			"lat": 49.0492180,
			"lon": 7.7066681,
			"tags": {
				"ele": "390",
				"mountain_pass": "yes",
				"name": "Col du Maimont"
			}
		},
		{
			"type": "node",
			"id": 400899655,
			"lat": 47.6508179,
			"lon": 10.1131118,
			"tags": {
				"mountain_pass": "yes"
			}
		},
		{
			"type": "node",
			"id": 403076235,
			"lat": 47.5648506,
			"lon": 10.6240709,
			"tags": {
				"mountain_pass": "yes"
			}
		},
		{
			"type": "node",
			"id": 404702742,
			"lat": 47.5612599,
			"lon": 10.6258811,
			"tags": {
				"mountain_pass": "yes"
			}
		},
		{
			"type": "node",
			"id": 406381335,
			"lat": 47.5698465,
			"lon": 10.5979532,
			"tags": {
				"ele": "1137",
				"mountain_pass": "yes",
				"name": "Luimentalsattel",
				"natural": "saddle",
				"wikidata": "Q130754226"
			}
		},
		{
			"type": "node",
			"id": 408044982,
			"lat": 47.2163541,
			"lon": 10.3341746,
			"tags": {
				"ele": "2383",
				"mountain_pass": "yes",
				"name": "Falmedonjoch",
				"natural": "saddle"
			}
		},
		{
			"type": "node",
			"id": 410060036,
			"lat": 47.0296057,
			"lon": 9.5281921,
			"tags": {
				"direction": "157",
				"ele": "713",
				"mountain_pass": "yes",
				"name": "Sankt Luzisteig",
				"natural": "saddle"
			}
		},
		{
			"type": "node",
			"id": 411351335,
			"lat": 46.9696344,
			"lon": 11.1431114,
			"tags": {
				"ele": "3206.6",
				"mountain_pass": "yes",
				"name": "Pfaffenjoch",
				"natural": "saddle",
				"wpt_symbol": "Trail Head"
			}
		},
		{
			"type": "node",
			"id": 411533826,
			"lat": 48.9906421,
			"lon": 7.5245939,
			"tags": {
				"ele": "299",
				"mountain_pass": "yes",
				"name": "Col du Petit Dunkelthal",
				"name:de": "Klein Dunkeltaler Hals",
				"name:en": "Little Dunkelthal pass",
				"natural": "saddle",
				"source": "Karte der Vogesen im Massstabe 1:50 000;Club vosgien Baerenthal"
			}
		},
		{
			"type": "node",
			"id": 413155824,
			"lat": 47.3227782,
			"lon": 11.4097276,
			"tags": {
				"ele": "2280",
				"mountain_pass": "yes",
				"name": "Mandlscharte",
				"natural": "saddle"
			}
		},
		{
			"type": "node",
			"id": 413595385,
			"lat": 47.1395836,
			"lon": 11.2760370,
			"tags": {
				"alt_name": "Schlicker Scharte",
				"ele": "2440",
				"mountain_pass": "yes",
				"name": "Schlicker Schartl",
				"natural": "saddle",
				"wikidata": "Q15127531",
				"wikipedia": "de:Schlicker Scharte",
				"wpt_description": "Schlicker Schartl",
				"wpt_symbol": "Summit"
			}
		},
		{
			"type": "node",
			"id": 414025303,
			"lat": 47.5998253,
			"lon": 11.1222286,
			"tags": {
				"mountain_pass": "yes",
				"natural": "saddle"
			}
		},
		{
			"type": "node",
			"id": 414071608,
			"lat": 47.4262890,
			"lon": 10.3314596,
			"tags": {
				"ele": "1836",
				"mountain_pass": "yes"
			}
		},
		{
			"type": "node",
			"id": 414071801,
			"lat": 47.4416224,
			"lon": 10.3264278,
			"tags": {
				"ele": "1668",
				"mountain_pass": "yes",
				"name": "Südliches Falkenjoch",
				"natural": "saddle",
				"wikidata": "Q131367644"
			}
		},
		{
			"type": "node",
			"id": 414646730,
			"lat": 47.6675700,
			"lon": 10.0248200,
			"tags": {
				"ele": "758",
				"mountain_pass": "yes",
				"natural": "saddle",
				"wikidata": "Q136006796"
			}
		},
		{
			"type": "node",
			"id": 415452695,
			"lat": 49.0050517,
			"lon": 7.8618735,
			"tags": {
				"ele": "472",
				"mountain_pass": "yes",
				"name": "Col du Stiefelsberg",
				"natural": "saddle"
			}
		},
		{
			"type": "node",
			"id": 415746683,
			"lat": 47.9050749,
			"lon": 7.0903914,
			"tags": {
				"ele": "1233",
				"mountain_pass": "yes",
				"name": "Col du Haag",
				"natural": "saddle"
			}
		},
		{
			"type": "node",
			"id": 418039493,
			"lat": 47.1459538,
			"lon": 9.3378520,
			"tags": {
				"ele": "1839",
				"mountain_pass": "yes",
				"name": "Nideri",
				"natural": "saddle",
				"wikidata": "Q22610421"
			}
		},
		{
			"type": "node",
			"id": 418828767,
			"lat": 47.7770028,
			"lon": 10.1294317,
			"tags": {
				"mountain_pass": "yes"
			}
		},
		{
			"type": "node",
			"id": 419275175,
			"lat": 47.5257952,
			"lon": 10.3469760,
			"tags": {
				"mountain_pass": "yes"
			}
		},
		{
			"type": "node",
			"id": 419635623,
			"lat": 47.7297206,
			"lon": 12.1810457,
			"tags": {
				"ele": "1170",
				"mountain_pass": "yes",
				"source:ele": "gps_average"
			}
		},
		{
			"type": "node",
			"id": 419725780,
			"lat": 47.5251901,
			"lon": 10.3919409,
			"tags": {
				"ele": "1557",
				"mountain_pass": "yes",
				"name": "Steinpasssattel",
				"natural": "saddle",
				"ref:avf": "959",
				"wikidata": "Q130738098"
			}
		},
		{
			"type": "node",
			"id": 420225942,
			"lat": 48.1367024,
			"lon": 7.0866136,
			"tags": {
				"ele": "1144",
				"mountain_pass": "yes",
				"name": "Col du Calvaire",
				"natural": "saddle"
			}
		},
		{
			"type": "node",
			"id": 420791989,
			"lat": 47.4954831,
			"lon": 10.6384834,
			"tags": {
				"ele": "1860",
				"mountain_pass": "yes",
				"name": "Sabachjoch",
				"natural": "saddle",
				"ref:avf": "1062",
				"wikidata": "Q130932805"
			}
		},
		{
			"type": "node",
			"id": 420824421,
			"lat": 47.4380727,
			"lon": 10.5092941,
			"tags": {
				"ele": "1955",
				"mountain_pass": "yes",
				"name": "Steinkarscharte",
				"natural": "saddle",
				"ref:avf": "1179",
				"wikidata": "Q130537196"
			}
		},
		{
			"type": "node",
			"id": 420824433,
			"lat": 47.4347484,
			"lon": 10.5256073,
			"tags": {
				"alt_name": "Krottenkopfscharte",
				"ele": "1955",
				"mountain_pass": "yes",
				"name": "Lechtaler Scharte",
				"natural": "saddle",
				"ref:avf": "1196",
				"wikidata": "Q130537273"
			}
		},
		{
			"type": "node",
			"id": 421421057,
			"lat": 46.9760922,
			"lon": 11.5305265,
			"tags": {
				"ele": "2395",
				"mountain_pass": "yes",
				"name": "Flatschjoch - Passo Vallaccia",
				"name:de": "Flatschjoch",
				"name:it": "Passo Vallaccia",
				"natural": "saddle"
			}
		},
		{
			"type": "node",
			"id": 423322560,
			"lat": 47.4099819,
			"lon": 11.5392961,
			"tags": {
				"alt_name": "Gumpenjoch",
				"ele": "1974",
				"mountain_pass": "yes",
				"name": "Gumpenjöchl",
				"natural": "saddle"
			}
		},
		{
			"type": "node",
			"id": 423649264,
			"lat": 47.2717338,
			"lon": 9.9072637,
			"tags": {
				"direction": "182",
				"ele": "1486",
				"mountain_pass": "yes",
				"name": "Faschinajoch",
				"ref:avf": "120",
				"wikidata": "Q1397308",
				"wikimedia_commons": "Category:Faschinajoch",
				"wikipedia": "de:Faschinajoch"
			}
		},
		{
			"type": "node",
			"id": 424018412,
			"lat": 47.4205035,
			"lon": 10.1646796,
			"tags": {
				"ele": "1295",
				"mountain_pass": "yes"
			}
		},
		{
			"type": "node",
			"id": 424222468,
			"lat": 47.4099424,
			"lon": 9.5351717,
			"tags": {
				"ele": "1110",
				"mountain_pass": "yes",
				"name": "St. Anton",
				"wikidata": "Q681543",
				"wikipedia": "de:St. Anton (Pass)"
			}
		},
		{
			"type": "node",
			"id": 425920034,
			"lat": 47.8455374,
			"lon": 7.1433650,
			"tags": {
				"ele": "835",
				"mountain_pass": "yes",
				"name": "Col de Herrenfluh",
				"wikidata": "Q18005369",
				"wikipedia": "fr:Col de Herrenfluh"
			}
		},
		{
			"type": "node",
			"id": 426965771,
			"lat": 47.0185754,
			"lon": 8.8672757,
			"tags": {
				"ele": "1896",
				"information": "guidepost",
				"mountain_pass": "yes",
				"name": "Saaspass",
				"natural": "saddle",
				"tourism": "information",
				"wikidata": "Q1604516",
				"wikipedia": "de:Saaspass"
			}
		},
		{
			"type": "node",
			"id": 426996851,
			"lat": 47.4984492,
			"lon": 10.0912512,
			"tags": {
				"ele": "1628",
				"mountain_pass": "yes",
				"name": "Brunnenauscharte",
				"natural": "saddle",
				"wikidata": "Q130343499"
			}
		},
		{
			"type": "node",
			"id": 430807664,
			"lat": 47.5049989,
			"lon": 10.6001215,
			"tags": {
				"ele": "1853",
				"hiking": "yes",
				"mountain_pass": "yes",
				"name": "Hallergernjoch",
				"natural": "saddle",
				"ref:avf": "1036;1037",
				"wikidata": "Q130877303"
			}
		},
		{
			"type": "node",
			"id": 434430828,
			"lat": 48.2782609,
			"lon": 12.4365251,
			"tags": {
				"ele": "452",
				"mountain_pass": "yes",
				"name": "Stillpass",
				"note": "Da steht tatsächlich dieses Schild mit dem Namen und der Höhe ;-)"
			}
		},
		{
			"type": "node",
			"id": 435514582,
			"lat": 47.3245557,
			"lon": 10.0884992,
			"tags": {
				"alt_name": "Ochsenhoferscharte",
				"ele": "1850",
				"mountain_pass": "yes",
				"name": "Ochsenhofer Scharte",
				"natural": "saddle",
				"ref:avf": "726;727",
				"wikidata": "Q130569844"
			}
		},
		{
			"type": "node",
			"id": 436385442,
			"lat": 47.3624038,
			"lon": 8.3669924,
			"tags": {
				"alt_name": "Mutschellen",
				"description": "Tiefstgelegener Pass Europas",
				"ele": "551",
				"mountain_pass": "yes",
				"name": "Mutschellenpass",
				"natural": "saddle",
				"old_name": "Mutschällen",
				"source": "Wikipedia",
				"wikidata": "Q351542",
				"wikipedia": "de:Mutschellen"
			}
		},
		{
			"type": "node",
			"id": 436874250,
			"lat": 47.0279283,
			"lon": 9.2282526,
			"tags": {
				"ele": "2416",
				"mountain_pass": "yes",
				"name": "Wissmeilenpass",
				"natural": "saddle",
				"old_name": "Wissmilenpass"
			}
		},
		{
			"type": "node",
			"id": 437615110,
			"lat": 47.5863500,
			"lon": 12.3017518,
			"tags": {
				"ele": "1430",
				"information": "guidepost",
				"mountain_pass": "yes",
				"name": "Feldalmsattel",
				"natural": "saddle",
				"tourism": "information"
			}
		},
		{
			"type": "node",
			"id": 438063193,
			"lat": 47.5246314,
			"lon": 10.7798403,
			"tags": {
				"direction": "0",
				"ele": "1359",
				"mountain_pass": "yes",
				"name": "Bächsattel",
				"natural": "saddle",
				"source:ele": "DGM 1m data.bev.gv.at"
			}
		},
		{
			"type": "node",
			"id": 438063306,
			"lat": 47.5208099,
			"lon": 10.7627706,
			"tags": {
				"direction": "80",
				"mountain_pass": "yes",
				"name": "Kofeljoch",
				"natural": "saddle"
			}
		},
		{
			"type": "node",
			"id": 439085900,
			"lat": 47.4117772,
			"lon": 11.4350236,
			"tags": {
				"ele": "2623",
				"mountain_pass": "yes",
				"name": "Schlauchkarsattel",
				"natural": "saddle",
				"ref": "AV225"
			}
		},
		{
			"type": "node",
			"id": 440062313,
			"lat": 47.5522409,
			"lon": 10.8586257,
			"tags": {
				"ele": "1778",
				"mountain_pass": "yes",
				"name": "Weitalpjoch",
				"natural": "saddle"
			}
		},
		{
			"type": "node",
			"id": 440302730,
			"lat": 47.0340430,
			"lon": 8.6831605,
			"tags": {
				"mountain_pass": "yes",
				"name": "Zwüschet Mythen"
			}
		},
		{
			"type": "node",
			"id": 441561610,
			"lat": 50.3756852,
			"lon": 9.6816840,
			"tags": {
				"mountain_pass": "yes",
				"natural": "saddle"
			}
		},
		{
			"type": "node",
			"id": 442148798,
			"lat": 47.2428955,
			"lon": 9.3649931,
			"tags": {
				"ele": "2122",
				"mountain_pass": "yes",
				"name": "Rotsteinpass",
				"natural": "saddle"
			}
		},
		{
			"type": "node",
			"id": 442268119,
			"lat": 47.0011923,
			"lon": 12.5998228,
			"tags": {
				"ele": "2207",
				"mountain_pass": "yes",
				"name": "Kals-Matreier-Törl",
				"natural": "saddle",
				"wikidata": "Q21868250"
			}
		},
		{
			"type": "node",
			"id": 442514095,
			"lat": 47.3972850,
			"lon": 10.8182940,
			"tags": {
				"mountain_pass": "yes",
				"name": "Sättele Joch",
				"natural": "saddle"
			}
		},
		{
			"type": "node",
			"id": 443012447,
			"lat": 47.6231110,
			"lon": 11.6436605,
			"tags": {
				"mountain_pass": "yes",
				"natural": "saddle"
			}
		},
		{
			"type": "node",
			"id": 443061859,
			"lat": 47.0311574,
			"lon": 12.7156337,
			"tags": {
				"ele": "2651",
				"mountain_pass": "yes",
				"name": "Berger Törl",
				"natural": "saddle"
			}
		},
		{
			"type": "node",
			"id": 444862163,
			"lat": 47.1528414,
			"lon": 10.2215255,
			"tags": {
				"ele": "2539",
				"mountain_pass": "yes",
				"name": "Valfagehrjoch",
				"natural": "saddle",
				"note": "basemap.at says ele=2543",
				"wikidata": "Q2509026",
				"wikipedia": "de:Valfagehrjoch"
			}
		},
		{
			"type": "node",
			"id": 446048204,
			"lat": 47.3997025,
			"lon": 11.5877221,
			"tags": {
				"ele": "1906",
				"mountain_pass": "yes",
				"name": "Binssattel",
				"natural": "saddle"
			}
		},
		{
			"type": "node",
			"id": 447203519,
			"lat": 47.3740771,
			"lon": 9.8282724,
			"tags": {
				"direction": "102",
				"ele": "1250",
				"mountain_pass": "yes",
				"name": "Hottersattel"
			}
		},
		{
			"type": "node",
			"id": 448448998,
			"lat": 47.4510678,
			"lon": 10.4667704,
			"tags": {
				"alt_name": "Hintere Schafwanne",
				"mountain_pass": "yes",
				"name": "Hintere Schäfwanne",
				"natural": "saddle",
				"wikidata": "Q124658498"
			}
		},
		{
			"type": "node",
			"id": 448886673,
			"lat": 47.4068622,
			"lon": 11.5048660,
			"tags": {
				"ele": "1825",
				"mountain_pass": "yes",
				"name": "Ladizjöchl",
				"natural": "saddle",
				"source": "estimated from NASA elevation data (probably very inexact)"
			}
		},
		{
			"type": "node",
			"id": 451011085,
			"lat": 46.9691318,
			"lon": 9.3872045,
			"tags": {
				"mountain_pass": "yes",
				"name": "Lavtinasattel",
				"natural": "saddle"
			}
		},
		{
			"type": "node",
			"id": 454840323,
			"lat": 47.2859674,
			"lon": 10.2664029,
			"tags": {
				"ele": "2262",
				"mountain_pass": "yes",
				"name": "Große Steinscharte",
				"natural": "saddle",
				"wikidata": "Q130486849"
			}
		},
		{
			"type": "node",
			"id": 454841950,
			"lat": 47.2826526,
			"lon": 10.2785079,
			"tags": {
				"ele": "2541",
				"mountain_pass": "yes",
				"name": "Kleine Steinscharte",
				"natural": "saddle",
				"ref:avf": "435",
				"wikidata": "Q130487035"
			}
		},
		{
			"type": "node",
			"id": 454870294,
			"lat": 47.3071728,
			"lon": 10.3330891,
			"tags": {
				"ele": "1974",
				"mountain_pass": "yes",
				"name": "Mädelejoch",
				"natural": "saddle",
				"wikidata": "Q32661611"
			}
		},
		{
			"type": "node",
			"id": 454913694,
			"lat": 47.3518385,
			"lon": 10.3611496,
			"tags": {
				"ele": "2042",
				"mountain_pass": "yes",
				"name": "Seichereck",
				"wikidata": "Q1238428"
			}
		},
		{
			"type": "node",
			"id": 455524541,
			"lat": 47.3303766,
			"lon": 12.3050618,
			"tags": {
				"ele": "2030",
				"mountain_pass": "yes",
				"name": "Schöntaljoch",
				"natural": "saddle"
			}
		},
		{
			"type": "node",
			"id": 455564088,
			"lat": 47.2620857,
			"lon": 9.9565346,
			"tags": {
				"alt_name": "Hochscherescharte;Hochschere Fürkele;Hochschere",
				"direction": "67",
				"ele": "2013",
				"mountain_pass": "yes",
				"name": "Hochscherefürggele",
				"wikidata": "Q131948378"
			}
		},
		{
			"type": "node",
			"id": 457514058,
			"lat": 47.3998967,
			"lon": 11.6889797,
			"tags": {
				"ele": "2103",
				"ele:source": "sign",
				"mountain_pass": "yes",
				"name": "Am Übergang",
				"natural": "saddle"
			}
		},
		{
			"type": "node",
			"id": 457672200,
			"lat": 46.9852783,
			"lon": 10.0852274,
			"tags": {
				"ele": "2405",
				"mountain_pass": "yes",
				"name": "Jöchli",
				"natural": "saddle"
			}
		},
		{
			"type": "node",
			"id": 458129558,
			"lat": 47.4575081,
			"lon": 11.7493169,
			"tags": {
				"ele": "1955",
				"mountain_pass": "yes",
				"name": "Steinernes Tor",
				"natural": "saddle",
				"wikidata": "Q25927130",
				"wikipedia": "de:Steinernes Tor (Tirol)"
			}
		},
		{
			"type": "node",
			"id": 458209853,
			"lat": 47.4082199,
			"lon": 11.6948712,
			"tags": {
				"ele": "1686",
				"mountain_pass": "yes",
				"name": "Weißenbachsattel",
				"natural": "saddle"
			}
		},
		{
			"type": "node",
			"id": 459004071,
			"lat": 47.3917604,
			"lon": 11.6448537,
			"tags": {
				"ele": "1943",
				"mountain_pass": "yes",
				"name": "Rizuelhals",
				"natural": "saddle"
			}
		},
		{
			"type": "node",
			"id": 459530438,
			"lat": 47.3790375,
			"lon": 10.3853159,
			"tags": {
				"ele": "2007",
				"mountain_pass": "yes",
				"name": "Himmelecksattel",
				"natural": "saddle",
				"ref:avf": "1327",
				"wikidata": "Q130483859"
			}
		},
		{
			"type": "node",
			"id": 460018185,
			"lat": 47.0542348,
			"lon": 10.2229650,
			"tags": {
				"ele": "2730",
				"mountain_pass": "yes",
				"name": "Kuchenjöchli",
				"natural": "saddle",
				"source": "GPS"
			}
		},
		{
			"type": "node",
			"id": 460855724,
			"lat": 47.0769120,
			"lon": 9.6778913,
			"tags": {
				"direction": "162",
				"ele": "2240",
				"mountain_pass": "yes",
				"name": "Oberzalimscharte",
				"natural": "saddle"
			}
		},
		{
			"type": "node",
			"id": 461147582,
			"lat": 47.5154733,
			"lon": 10.1570066,
			"tags": {
				"ele": "1680",
				"mountain_pass": "yes"
			}
		},
		{
			"type": "node",
			"id": 461280906,
			"lat": 47.3805419,
			"lon": 11.5938583,
			"tags": {
				"ele": "2270",
				"mountain_pass": "yes",
				"name": "Lamsscharte",
				"natural": "saddle"
			}
		},
		{
			"type": "node",
			"id": 467403480,
			"lat": 47.9694023,
			"lon": 7.0978781,
			"tags": {
				"ele": "1125",
				"mountain_pass": "yes",
				"name": "Col du Hilsenfirst",
				"natural": "saddle"
			}
		},
		{
			"type": "node",
			"id": 469950452,
			"lat": 48.6371157,
			"lon": 7.2778145,
			"tags": {
				"ele": "730",
				"mountain_pass": "yes",
				"name": "Col du Himbeerfels",
				"natural": "saddle"
			}
		},
		{
			"type": "node",
			"id": 470269954,
			"lat": 47.3342396,
			"lon": 10.4644635,
			"tags": {
				"ele": "2490",
				"mountain_pass": "yes",
				"name": "Schwärzerscharte",
				"wikidata": "Q132134267"
			}
		},
		{
			"type": "node",
			"id": 470314209,
			"lat": 47.2856599,
			"lon": 10.3569179,
			"tags": {
				"ele": "2158",
				"mountain_pass": "yes",
				"name": "Rothornjoch",
				"natural": "saddle",
				"ref:avf": "1601;1603;1608",
				"wikidata": "Q130554799"
			}
		},
		{
			"type": "node",
			"id": 470321766,
			"lat": 47.2515183,
			"lon": 10.4505313,
			"tags": {
				"ele": "2258",
				"mountain_pass": "yes",
				"name": "Dreisattelscharte",
				"natural": "saddle"
			}
		},
		{
			"type": "node",
			"id": 470332201,
			"lat": 47.8852949,
			"lon": 8.0234761,
			"tags": {
				"ele": "1195",
				"information": "guidepost",
				"mountain_pass": "yes",
				"name": "Rinkensattel",
				"natural": "saddle",
				"tourism": "information"
			}
		},
		{
			"type": "node",
			"id": 470348529,
			"lat": 47.2311124,
			"lon": 10.5167558,
			"tags": {
				"ele": "2281",
				"mountain_pass": "yes",
				"name": "Alblittjöchl",
				"natural": "saddle"
			}
		},
		{
			"type": "node",
			"id": 470348567,
			"lat": 47.2240863,
			"lon": 10.5230334,
			"tags": {
				"ele": "2648",
				"mountain_pass": "yes",
				"name": "Leiterscharte",
				"natural": "saddle"
			}
		},
		{
			"type": "node",
			"id": 470618424,
			"lat": 48.5159319,
			"lon": 7.1703034,
			"tags": {
				"ele": "822",
				"mountain_pass": "yes",
				"name": "Col entre les deux Donons",
				"name:de": "Pass zwischen den beiden Donnen",
				"natural": "saddle"
			}
		},
		{
			"type": "node",
			"id": 471168169,
			"lat": 47.4013433,
			"lon": 10.4317975,
			"tags": {
				"ele": "2162",
				"mountain_pass": "yes",
				"name": "Bockkarscharte",
				"natural": "saddle",
				"ref:avf": "1389",
				"wikidata": "Q124657551"
			}
		},
		{
			"type": "node",
			"id": 471174262,
			"lat": 47.3890236,
			"lon": 10.4299960,
			"tags": {
				"ele": "2157",
				"image:panorama": "http://www.netzwolf.info/panoramen/allgaeuer_alpen/balkenscharte_w",
				"mountain_pass": "yes",
				"name": "Balkenscharte",
				"wikidata": "Q21873492"
			}
		},
		{
			"type": "node",
			"id": 471174286,
			"lat": 47.3875455,
			"lon": 10.4342151,
			"tags": {
				"mountain_pass": "yes",
				"name": "Sättele",
				"ref:avf": "1406",
				"wikidata": "Q131169944"
			}
		},
		{
			"type": "node",
			"id": 471221912,
			"lat": 47.2109007,
			"lon": 10.3997968,
			"tags": {
				"ele": "2192",
				"mountain_pass": "yes",
				"name": "Schafjöchl",
				"natural": "saddle"
			}
		},
		{
			"type": "node",
			"id": 471656026,
			"lat": 46.9627158,
			"lon": 12.1233675,
			"tags": {
				"ele": "2848",
				"mountain_pass": "yes",
				"name": "Bärenluegscharte",
				"natural": "saddle"
			}
		},
		{
			"type": "node",
			"id": 471961336,
			"lat": 47.3217822,
			"lon": 11.4666570,
			"tags": {
				"ele": "1803",
				"mountain_pass": "yes",
				"name": "Törl",
				"natural": "saddle"
			}
		},
		{
			"type": "node",
			"id": 472192001,
			"lat": 46.9470384,
			"lon": 11.7394608,
			"tags": {
				"ele": "2545",
				"mountain_pass": "yes",
				"name": "Eisbruggjoch - Passo Ponte di Ghiaccio",
				"name:de": "Eisbruggjoch",
				"name:it": "Passo Ponte di Ghiaccio",
				"natural": "saddle",
				"wikidata": "Q3897335",
				"wikipedia": "it:Passo Ponte di Ghiaccio"
			}
		},
		{
			"type": "node",
			"id": 472461080,
			"lat": 47.5659252,
			"lon": 12.3207684,
			"tags": {
				"ele": "1980",
				"mountain_pass": "yes",
				"name": "Ellmauer Tor",
				"natural": "saddle",
				"source:ele": "Tiris:Höhenlinien",
				"wikidata": "Q1332505",
				"wikipedia": "de:Ellmauer Tor"
			}
		},
		{
			"type": "node",
			"id": 473126953,
			"lat": 47.1028830,
			"lon": 12.2704324,
			"tags": {
				"ele": "2776",
				"mountain_pass": "yes",
				"name": "Krimmler Törl",
				"natural": "saddle",
				"place": "locality",
				"wikidata": "Q21868729"
			}
		},
		{
			"type": "node",
			"id": 473130780,
			"lat": 47.2507870,
			"lon": 10.5693994,
			"tags": {
				"ele": "2497",
				"mountain_pass": "yes",
				"name": "Kogelsee Scharte",
				"natural": "saddle"
			}
		},
		{
			"type": "node",
			"id": 474478321,
			"lat": 47.0951564,
			"lon": 10.3512648,
			"tags": {
				"ele": "2697",
				"mountain_pass": "yes",
				"name": "Schmalzgrubenscharte",
				"natural": "saddle"
			}
		},
		{
			"type": "node",
			"id": 474598467,
			"lat": 47.3430244,
			"lon": 11.4707727,
			"tags": {
				"ele": "2080",
				"mountain_pass": "yes",
				"name": "Lafatscher Joch",
				"natural": "saddle",
				"wikidata": "Q21868801"
			}
		},
		{
			"type": "node",
			"id": 474650572,
			"lat": 47.2194814,
			"lon": 10.5369758,
			"tags": {
				"alt_name": "Bittrichscharte",
				"ele": "2535",
				"mountain_pass": "yes",
				"name": "Bitterscharte",
				"natural": "saddle"
			}
		},
		{
			"type": "node",
			"id": 474658653,
			"lat": 47.2092437,
			"lon": 10.5460910,
			"tags": {
				"ele": "2452",
				"mountain_pass": "yes",
				"name": "Gebäudjöchl",
				"natural": "saddle"
			}
		},
		{
			"type": "node",
			"id": 475562556,
			"lat": 47.2413766,
			"lon": 10.0707948,
			"tags": {
				"alt_name": "Braunarlfürggele;Braunarlfürkele",
				"ele": "2145",
				"mountain_pass": "yes",
				"name": "Fürggele",
				"natural": "saddle",
				"ref:avf": "719",
				"wikidata": "Q21881563"
			}
		},
		{
			"type": "node",
			"id": 475714086,
			"lat": 46.9947523,
			"lon": 11.6603763,
			"tags": {
				"ele": "2251",
				"mountain_pass": "yes",
				"name": "Pfitscher Joch - Passo di Vizze",
				"name:de": "Pfitscher Joch",
				"name:it": "Passo di Vizze",
				"natural": "saddle",
				"wikidata": "Q668339",
				"wikipedia": "de:Pfitscher Joch"
			}
		},
		{
			"type": "node",
			"id": 475751405,
			"lat": 47.0726417,
			"lon": 9.7635942,
			"tags": {
				"direction": "92",
				"ele": "2065",
				"mountain_pass": "yes",
				"name": "Saulajoch",
				"natural": "saddle",
				"wikidata": "Q21880644"
			}
		},
		{
			"type": "node",
			"id": 475756885,
			"lat": 47.0573517,
			"lon": 9.7688625,
			"tags": {
				"direction": "120",
				"ele": "2155",
				"mountain_pass": "yes",
				"name": "Lünerkrinne",
				"natural": "saddle"
			}
		},
		{
			"type": "node",
			"id": 476017986,
			"lat": 47.1429028,
			"lon": 12.5102632,
			"tags": {
				"ele": "2563",
				"mountain_pass": "yes",
				"name": "Messelingscharte",
				"natural": "saddle"
			}
		},
		{
			"type": "node",
			"id": 476928892,
			"lat": 47.2195089,
			"lon": 9.2501200,
			"tags": {
				"ele": "1457",
				"mountain_pass": "yes",
				"name": "Risipass",
				"natural": "saddle"
			}
		},
		{
			"type": "node",
			"id": 477212407,
			"lat": 47.0472070,
			"lon": 8.9572238,
			"tags": {
				"ele": "1818",
				"mountain_pass": "yes",
				"name": "Längeneggpass",
				"natural": "saddle"
			}
		},
		{
			"type": "node",
			"id": 477446564,
			"lat": 46.9628405,
			"lon": 9.8715373,
			"tags": {
				"ele": "2478",
				"mountain_pass": "yes",
				"natural": "saddle"
			}
		},
		{
			"type": "node",
			"id": 477446867,
			"lat": 46.9503535,
			"lon": 9.8749716,
			"tags": {
				"ele": "2462",
				"mountain_pass": "yes",
				"natural": "saddle"
			}
		},